recv_time,timestamp,ax,ay,az,gx,gy,gz,mx,my,mz,roll,pitch,yaw,ax_w,ay_w,az_w,vx,vy,vz,x,y,z,a_norm,g_norm,m_norm,stationary,bias_ready
2026-03-12T18:31:19.532,3016959,-0.4333505004882812,1.0815805999755859,9.299677798461914,-170.0,-13.0,-223.0,21.0,10561.0,-3278.0,6.6338684731678965,2.650126714776352,0.0,0.0,0.0,-0.43426415616480085,0.0,0.0,-0.0042775019382232885,0.0,0.0,-4.273224436285066e-05,9.372385843835199,280.70981457726054,11058.048923747805,0,0
2026-03-12T18:31:19.533,3016969,-0.5847837554931641,1.2030863342285156,9.342174877929686,-170.0,-13.0,-221.64,35.0,10561.0,-3278.0,4.96993297559808,2.5356131859186903,-2.2163999999999997,-0.1526746155500508,0.39542316661890686,-0.3787153799899343,-0.0015038449631680003,0.003894918191196233,-0.007943685902050792,-1.5023411182048323e-05,3.8910232730050365e-05,-0.00012204693427997522,9.43745835583483,279.63063065408267,11058.08437298251,0,0
2026-03-12T18:31:19.533,3016979,-0.28311434631347654,1.0468646759033202,9.528922607421874,-166.0,-10.760000000000002,-220.38879999999997,35.0,10561.0,-3191.0,3.354326110061649,2.416967667083481,-4.420287999999999,0.15809671469969125,0.4767614864086567,-0.22937745741999116,7.596535107147847e-05,0.008532595059453557,-0.010083898569106943,-1.4249493913662206e-05,0.00012411194714126135,-0.0002226630340510736,9.590435101755205,276.1213515203777,11032.607443392519,0,0
2026-03-12T18:31:19.533,3016989,-0.6715735656738281,1.1665747589111328,9.133879333496093,-164.32,-10.539200000000001,-214.99769599999996,28.0,10554.0,-3191.0,1.7946349925567366,2.339472637788264,-6.570264959999999,-0.19422342602738674,0.9081430998547979,-0.6209430172971562,-0.0018382748755643532,0.017349815667131514,-0.016048928810947327,-3.259961042663643e-05,0.0002973124937087639,-0.00038276916983838634,9.2325326645026,270.8064741138003,11025.886857754345,0,0
2026-03-12T18:31:19.537,3016999,-0.25438392639160157,1.1270704315185547,9.83238766784668,-161.7344,-13.616064,-211.39788031999996,28.0,10554.0,-3250.0,0.2727193246856143,2.1923481765621444,-8.6842437632,0.28384161283259424,1.0494314567854386,0.0,0.0009851391339701656,0.02742646828146111,-0.015808194878783117,-2.2725470867847836e-05,0.0005710055993468516,-0.0005403102675075913,9.900042736798326,266.51918720047365,11043.10644701028,0,0
2026-03-12T18:31:19.550,3017009,-0.7314286071777343,1.2761094848632812,9.408015423583985,-157.995648,-14.44677888,-211.84604989439995,23.0,10566.0,-3250.0,-1.171761170222733,2.08324247566107,-10.802704262144,-0.10787204371555842,1.515305223517223,-0.406308988264513,-9.217758363763725e-05,0.04194082770888384,-0.01957321549000682,-2.3623599457519984e-05,0.0009894234625592543,-0.0007353063799852518,9.52230000762159,264.6697622751948,11054.563989592714,0,0
2026-03-12T18:31:19.557,3017019,-0.2549824768066406,1.1192892761230469,9.795277542114258,-155.43599615999997,-14.3310365696,-204.41836590284794,23.0,10566.0,-3287.0,-2.587447099932655,1.933055667798278,-12.846887921172478,0.4186304897427163,1.504938395042035,0.0,0.004032715404082683,0.05613535848441463,-0.019279617257656718,1.6686851028723545e-05,0.0015492262703559973,-0.0009271744500092572,9.862316496349651,257.20146933834064,11065.498362025995,0,0
2026-03-12T18:31:19.567,3017029,-0.5692214447021484,1.1420341918945311,9.127295278930664,-157.48111646719997,-14.224553644032,-204.0648966306201,28.0,10567.0,-3287.0,-3.9928450973768164,1.8170640978933712,-14.887536887478678,0.18273385605893327,1.7878802435324053,-0.7675202393432077,0.005772153155201936,0.0729039485059426,-0.026550497356322464,7.433397419816216e-05,0.0022759874896600076,-0.0011914867441489094,9.216060669144651,258.15716532181204,11066.4647471539,0,0
2026-03-12T18:31:19.578,3017039,-0.4375403533935547,1.2048819854736328,9.75517466430664,-155.84262714982395,-15.406589352509439,-194.1397049001705,28.0,10567.0,-3223.0,-5.362386376197714,1.676284854096243,-16.828933936480382,0.46141777238149756,2.066175814245306,-0.19807955300555413,0.010230535915831656,0.09216222104866974,-0.028103323493082335,0.00017646269402312226,0.0031944120904465584,-0.0014710474591006532,9.839035262204156,249.4283713837726,11047.624269497945,0,0
2026-03-12T18:31:19.588,3017049,-0.5386953735351562,1.2473790649414063,9.674370358276366,-159.53521697783805,-11.854062204308686,-193.80852850815685,25.0,10539.0,-3223.0,-6.7431677625705655,1.581792788314119,-18.767019221561952,0.5014068319981415,2.3376754203842522,-0.33440349328494356,0.015015935172275875,0.11380589062372458,-0.030975648049542795,0.0003262954237001351,0.004328138525687121,-0.001779023135656485,9.769318761624,251.30409859253496,11020.838216760103,0,0
2026-03-12T18:31:19.597,3017059,-0.3758896606445312,1.1821370697021483,9.630077627563477,-162.932399619611,-8.585737227963993,-193.5038462275043,25.0,10539.0,-3301.0,-8.14192968425515,1.5067761014241337,-20.702057683836994,0.7746925514544696,2.416241091425916,-0.43441618728128795,0.022421417776518262,0.13589877701491396,-0.03479001277352033,0.0005499590918638524,0.005681439169540424,-0.0021247963401282966,9.70964140436927,253.10950245771076,11043.900895969684,0,0
2026-03-12T18:31:19.607,3017069,-0.6566098052978515,1.2503718170166014,9.305663302612304,-165.0978076500421,-5.498878249726875,-190.74353852930398,19.0,10558.0,-3301.0,-9.53122196220283,1.4900147509640458,-22.609493069130032,0.6758361537931928,2.723474031034939,-0.8224488494083477,0.028742082624733437,0.1606865145653844,-0.04236928374858975,0.0008365425381930756,0.007281016010879074,-0.0025459406884365803,9.412222671547248,252.3303811346063,11062.021786273972,0,0
2026-03-12T18:31:19.617,3017079,-0.28730419921875,1.1659762084960936,9.917381826782226,-166.52998303803875,-6.018967989748726,-192.68405544695966,19.0,10558.0,-3287.0,-10.927992623871257,1.4330982423775391,-24.536333623599628,1.2113939840574672,2.7722011491145606,-0.28593931622773816,0.04024318212832849,0.18558239816568206,-0.04455024675720413,0.0012377353851168841,0.009127703152543359,-0.002988451712852613,9.98982014452002,254.7461647401156,11057.852142256199,0,0
2026-03-12T18:31:19.627,3017089,-0.15682020874023436,1.131260284423828,10.059238275146484,-166.00758439499563,-6.897450550568827,-192.3093310112029,20.0,10549.0,-3287.0,-12.302999727196807,1.3569752200137322,-26.459426933711658,1.5104139260023965,2.8771090617903905,-0.21845359484341387,0.054517111567527164,0.21113818645183216,-0.04603376096505369,0.0017811235942913639,0.011227845932044619,-0.0034453405331806466,10.123863742917328,254.14360447340698,11049.26106126559,0,0
2026-03-12T18:31:19.637,3017099,-0.3746925598144531,1.149815347290039,9.636063131713867,-165.846977643396,-8.265654506523319,-188.44458453030666,20.0,10549.0,-3284.0,-13.649978483566708,1.2883707013708783,-28.343872779014724,1.4603285866452291,3.065561277898105,-0.7079711400721607,0.06808359147246977,0.238166892242351,-0.052316770280288666,0.0024594975495070455,0.01359590533961366,-0.003964539727747549,9.711651894792114,251.16708079816152,11048.368974649607,0,0
2026-03-12T18:31:19.651,3017109,-0.31184476623535157,1.1480196960449218,9.816226806640625,-166.2592194319243,-7.2044021460014545,-189.76901776788213,24.0,10550.0,-3284.0,-14.982824478748247,1.2251907972036524,-30.241562956693546,1.7370216695815857,3.2085872043996524,-0.6163709524785208,0.08417200104576134,0.2661989728220523,-0.05760327260799776,0.003297916342404694,0.01624163717276635,-0.0045360318813737,9.888048599200221,252.40109263032286,11049.331744499303,0,0
2026-03-12T18:31:19.659,3017119,-0.28431144714355466,1.092354507446289,9.570821136474608,-164.71848187737035,-9.988049974321337,-184.90749634645155,24.0,10550.0,-3306.0,-16.282890982861666,1.1337890851430241,-32.09063792015806,1.8907157569246733,3.219448479792815,-0.9221109569330661,0.10153297123578295,0.29391755575568074,-0.0658220164446685,0.004308932808707762,0.019161631917592833,-0.005189057793774565,9.63715147724182,247.8360781229967,11055.890375722798,0,0
2026-03-12T18:31:19.671,3017129,-0.6524199523925781,1.3120225097656248,9.925162982177733,-163.70100332718073,-8.94900597637563,-189.39489663873545,12.0,10548.0,-3306.0,-17.538147158612233,1.084562379142493,-33.984586886545415,1.9725356909310992,3.7859965767056813,-0.7274844021942926,0.11943945322291752,0.32680085869989645,-0.07200040755961225,0.005497824013596,0.02240721086408721,-0.005903152807501316,10.032742151735128,250.4965669846358,11053.962366500078,0,0
2026-03-12T18:31:19.677,3017139,-0.229843359375,1.044470474243164,9.561244329833984,-162.76492306100627,-10.47308549826558,-183.12330490763662,12.0,10548.0,-3248.0,-18.78479536946436,0.9856680166718381,-35.81581993562178,2.315565295995542,3.345248139402464,-1.0883581993086242,0.14045617959012985,0.35484953999251223,-0.08164072970940801,0.006895483423687801,0.025929750557748318,-0.006712840544490801,9.62087000619991,245.2269367324979,11036.754595441542,0,0
2026-03-12T18:31:19.688,3017149,-0.26396073303222656,0.9750386260986328,9.097367758178711,-165.18372921612578,-11.875238658404331,-177.35344051502568,26.0,10563.0,-3248.0,-20.03832066982537,0.878699630127701,-37.58935434077204,2.350911839760994,3.2801010162480386,-1.5910169408013992,0.1615058185179237,0.3818357919026677,-0.09608763563066068,0.008502031067258171,0.029718360368298218,-0.007666043183896611,9.153276774932394,242.65392754591298,11051.115283083423,0,0
2026-03-12T18:31:19.697,3017159,-0.3705027069091797,1.1815385192871093,9.981426721191406,-171.56903087883572,-14.365219565731984,-176.92516527382364,26.0,10563.0,-3216.0,-21.32643732830723,0.7556878131731167,-39.358605993510274,2.804058808584178,3.8184972284586083,-0.9343043105469881,0.186703210504709,0.41372045272444496,-0.1038492185550886,0.010358694109132956,0.033821709330647126,-0.00869583083407805,10.057941385735951,246.87001842476616,11041.752623564793,0,0
2026-03-12T18:31:19.707,3017169,-0.13168109130859373,1.1474211456298828,10.228029492187499,-173.20350840852885,-16.096002000473423,-180.37115205191776,21.0,10543.0,-3216.0,-22.616581731939924,0.5968021448868222,-41.16231751402945,3.2574818393417084,3.7835570963847562,-0.8055383879234341,0.21598885846465418,0.4447826833329681,-0.11022603339780808,0.012506064111085718,0.038231266627812836,-0.009788293076888074,10.293031744258059,250.583896326078,11022.610670798456,0,0
2026-03-12T18:31:19.717,3017179,-0.35194764404296874,1.0989385620117187,9.526528405761718,-172.14722773584654,-17.68832184043555,-180.90145988776433,21.0,10543.0,-3264.0,-23.874278624251424,0.4451478149317071,-42.9713321129071,3.1026188853761143,3.7525832086193915,-1.5375417114658632,0.2433098216086391,0.4750738876878746,-0.12371742875477972,0.014924223164844935,0.04293902349918689,-0.011014441897071434,9.596159469965507,250.34552709443932,11036.710832489904,0,0
2026-03-12T18:31:19.729,3017189,-0.3459621398925781,1.036090768432617,9.187748870849608,-170.6154495169788,-16.993256093200703,-182.0293430967432,25.0,10549.0,-3264.0,-25.100216758881803,0.3032300532288378,-44.79162554387453,3.190992977745493,3.6461364360920885,-1.9243181050688287,0.2710914551153026,0.5038622232680635,-0.140816200658386,0.017617502578281964,0.04792966808613566,-0.012410181299751638,9.25245390134253,250.06615947537102,11042.450905482894,0,0
2026-03-12T18:31:19.737,3017199,-0.42497079467773435,1.2132616912841796,9.87727894897461,-171.2862135556205,-20.993795605744644,-175.70699564900374,25.0,10549.0,-3257.0,-26.305841194674294,0.12857192796132688,-46.548695500364566,3.687831144081412,4.053352064282241,-1.4889891485679208,0.30335022005777496,0.5362298077522226,-0.15337050076190423,0.020630353774080852,0.05323867419749423,-0.01392994242106331,9.960584498096672,246.2775968864331,11040.383824849569,0,0
2026-03-12T18:31:19.748,3017209,-0.2813186950683594,1.2671312286376952,10.343549722290039,-170.54331647117084,-19.954291957285076,-181.01043599708345,22.0,10559.0,-3257.0,-27.486342384768896,-0.046710975832179834,-48.3587998603354,4.216139553661609,4.134497400259934,-1.215731473581295,0.34032894136047515,0.5689111600284997,-0.1630448982652514,0.024009609544497917,0.05886885801198145,-0.015544831012312108,10.424671822952998,249.49543983880096,11049.932759976415,0,0
2026-03-12T18:31:19.757,3017219,-0.30705636291503907,1.1162965240478515,9.509768994140625,-168.41985115347717,-20.19794860070227,-173.72960111731678,22.0,10559.0,-3273.0,-28.63255807299957,-0.21740883870353572,-50.09609587150857,4.031389997086378,3.8101408329574498,-1.995963129695408,0.3749331987113688,0.5979073798327031,-0.1802594616187724,0.027731182590079992,0.06478308387849818,-0.017330078202871333,9.579984752677133,242.8068732441856,11054.659379646213,0,0
2026-03-12T18:31:19.767,3017229,-0.6548141540527344,1.3551181396484375,9.851541281127929,-166.466263061199,-20.422112712646086,-167.03123302793142,20.0,10559.0,-3273.0,-29.72528076321094,-0.3587947790872066,-51.76640820178788,4.325571191913219,4.304461246976923,-1.9276247049851332,0.4119160769710435,0.6313377124179352,-0.19654267303859438,0.03181849301643064,0.07102536454167487,-0.019276209428324018,9.965841277208852,236.70131438595658,11054.655580342609,0,0
2026-03-12T18:31:19.777,3017239,-0.42975919799804685,1.1360486877441405,9.414599478149414,-164.18896201630307,-19.5883436956344,-167.7487343856969,20.0,10559.0,-3176.0,-30.793454615624608,-0.5074355104986723,-53.44389554564485,4.35993751656836,3.850536727864479,-2.3050305293692226,0.44868272035467616,0.6597954335011312,-0.2162990836573023,0.036269014899757424,0.07754569555780949,-0.021417761064632144,9.492627819690412,235.54480750959553,11026.32563458925,0,0
2026-03-12T18:31:19.789,3017249,-0.08439560852050781,1.1917138763427733,10.554838018798828,-161.8538450549988,-22.261276199983648,-166.08883563484116,32.0,10553.0,-3176.0,-31.82918606391679,-0.7122690951767247,-55.10478390199326,5.288520792736089,3.9179451793712587,-1.469194537982455,0.4940444093578064,0.6884902620154212,-0.22752616360156994,0.04116824953434215,0.08434616757978575,-0.023669329677947194,10.622236590515513,232.97582041850782,11020.608377036178,0,0
2026-03-12T18:31:19.797,3017259,-0.3363853332519531,1.1474211456298828,9.773729727172851,-163.70553745059888,-24.160374103984957,-165.68172878405386,32.0,10553.0,-3202.0,-32.863810980583956,-0.910198447219884,-56.7616011898338,4.991657136552617,3.817456746019193,-2.2260229691361415,0.5358015660124825,0.7157648570334788,-0.24603959739353737,0.046479738929272506,0.0914123123339704,-0.026103595926230686,9.846599573339413,234.16588547802328,11028.129351798518,0,0
2026-03-12T18:31:19.807,3017269,-0.5057751007080078,1.036090768432617,8.793902697753905,-164.92909445455098,-22.22754417566616,-168.10719048132955,19.0,10577.0,-3202.0,-33.894611904234935,-1.0664497159905368,-58.44267309464709,4.581554846104734,3.5541542673505315,-3.0955130004671236,0.5728928577564268,0.7400368037113794,-0.2728398064872355,0.052156458839329935,0.09871386769071311,-0.028803161997111935,8.86916101953792,236.54956649549246,11051.06755024147,0,0
2026-03-12T18:31:19.825,3017279,-0.3758896606445312,1.1845312713623046,9.936535440063476,-164.0547668981869,-21.089340641612868,-164.5786152428232,19.0,10554.0,-3262.0,-34.900160223618336,-1.2259150533111545,-60.08845924707532,5.502859398800307,3.783734451526439,-2.344677341324603,0.6185026299682634,0.7662060360032441,-0.2918422812019743,0.058283143653873555,0.10626955212269482,-0.031689863224322545,10.013947469477365,233.33419686355802,11046.624869162526,0,0
2026-03-12T18:31:19.827,3017289,0.006584054565429687,1.045069024658203,10.059836825561522,-164.05038554633197,-19.082193390283837,-169.73232602339735,18.0,10554.0,-3262.0,-35.90359041213287,-1.3960454134598377,-61.78578250730929,5.860648513181226,3.3452024775506737,-2.273061946347621,0.6669524783735745,0.7876631898670696,-0.30985430715546874,0.0648877157691717,0.11403203783734416,-0.034753617889581354,10.113976941490339,236.82424200194797,11046.623194442725,0,0
2026-03-12T18:31:19.837,3017299,-0.3938461730957031,1.1091139190673827,9.476848721313477,-165.0063547026254,-18.35561791906113,-165.67373994152558,18.0,10556.0,-3260.0,-36.8902212905351,-1.5204526877548117,-63.44251990672455,5.623967698152388,3.4562896939958474,-2.905855910802101,0.7123442730247719,0.8098926955049227,-0.3338291732695374,0.07193914734092,0.12200883382760098,-0.03805381771265445,9.549654977023621,234.54597397450982,11047.943700073783,0,0
2026-03-12T18:31:19.852,3017309,-0.35314474487304687,1.0277110626220702,9.194931475830078,-161.88584632641536,-18.80716848553624,-170.97984074620354,13.0,10556.0,-3260.0,-37.83578194775822,-1.6501087662468932,-65.15231831418659,5.625998547078892,3.204710349955487,-3.1880672207766168,0.7570751946181273,0.8293107020194104,-0.3602241977951441,0.07943038938781417,0.1301716389069473,-0.041614403630915286,9.258923592096327,236.20931981795349,11047.936685191493,0,0
2026-03-12T18:31:19.857,3017319,-0.3555389465332031,1.1863269226074218,9.872490545654296,-159.01497862030212,-19.22259500669334,-175.86145348650726,13.0,10576.0,-3204.0,-38.73176144303192,-1.7839828742637611,-66.91093284905166,6.309156298512075,3.3114839401420384,-2.861977941582455,0.8078642562391993,0.8494891582995182,-0.3830113175528041,0.08742152291825596,0.13852786395945255,-0.04539907228963688,9.949866787240852,237.87081032945898,11050.681472198898,0,0
2026-03-12T18:31:19.867,3017329,0.008978256225585938,1.1150994232177733,10.433332284545898,-158.53378033067793,-22.64478740615787,-172.5125372075867,28.0,10576.0,-3204.0,-39.62083478788021,-1.981009674736251,-68.63605822112753,6.90713190883768,2.9641413652190542,-2.4852194940533066,0.8637815416976625,0.8659436133724331,-0.4017455598059371,0.09596327899689736,0.1470401127930837,-0.049367111359808556,10.492757020559143,235.38547405565348,11050.709298502064,0,0
2026-03-12T18:31:19.878,3017339,-0.49679684448242184,1.1875240234375,9.648034140014648,-157.2910779042237,-23.63320441366524,-173.75153423097976,28.0,10567.0,-3281.0,-40.47058539293009,-2.1401970943747046,-70.37357356343732,6.500079768255936,3.1054689329430563,-3.2609178873442684,0.9148506042895186,0.8835433281613356,-0.4278394175991891,0.10500667325475276,0.15571967052862237,-0.05359186003026465,9.733528814249079,235.56019864728842,11064.684089480368,0,0
2026-03-12T18:31:19.887,3017349,-0.23642741394042968,1.2306196533203124,10.433930834960936,-155.5077916718858,-22.462548060572022,-170.81141149250135,24.0,10567.0,-3281.0,-41.2943790890778,-2.3100131692840318,-72.08168767836233,7.271593288997714,2.897184724420266,-2.794696845996569,0.9727530391218032,0.8988274477744552,-0.4489495902682675,0.11461946944232482,0.16454323706136056,-0.05802327457701438,10.508912185471404,232.0857118223799,11064.674690202148,0,0
2026-03-12T18:31:19.898,3017359,-0.30346506042480464,1.1174936248779297,9.815029705810547,-153.46716833813494,-22.82554421572626,-166.34649857310123,24.0,10570.0,-3269.0,-42.08918310599501,-2.4738010444116383,-73.74515266409334,6.948229821998505,2.635467690732707,-3.291122119445764,1.0266018072816614,0.9113043928115555,-0.4746328992907842,0.12476060202762629,0.17348262470848663,-0.06270683396635231,9.88310129314098,227.47381127066097,11063.988295366187,0,0
2026-03-12T18:31:19.907,3017369,-0.29568390502929687,1.0217255584716796,9.14225903930664,-152.30979487108416,-24.759500678468157,-171.19877868725314,12.0,10570.0,-3269.0,-42.86244436000628,-2.652960228291267,-75.45714045096587,6.600624023900945,2.3046550379513375,-3.8206179184405586,1.0762189268078606,0.9203356790432029,-0.505146492298062,0.1353872685044092,0.18250329551741973,-0.06769054059044359,9.203925924860087,230.4784768943206,11063.968772551738,0,0
2026-03-12T18:31:19.918,3017379,-0.4626794708251953,1.2102689392089843,9.815628256225585,-153.56501128139743,-24.858740624190705,-168.5428763922729,12.0,10562.0,-3251.0,-43.626686504651566,-2.8178469070103604,-77.1425692148886,7.285217862593761,2.4530135944697546,-3.5669620060180396,1.131835038852291,0.9306928277630819,-0.5327038706728687,0.14655891327403917,0.1916184135712555,-0.0729445617178751,9.900776800956137,229.36187751642052,11051.017554958456,0,0
2026-03-12T18:31:19.927,3017389,-0.13168109130859373,1.0271125122070313,9.540295065307618,-157.43981037888565,-22.87004137425545,-173.53944628089104,26.0,10562.0,-3251.0,-44.43089601562043,-2.9890555267813355,-78.87796367769751,7.186253738903457,1.8706132105483926,-3.728155665685682,1.1856421125977057,0.9351579754705374,-0.5614356459197797,0.15825691906561623,0.2007690233326349,-0.07848035925889582,9.596328983297381,235.4278490325176,11051.041625113898,0,0
2026-03-12T18:31:19.937,3017399,-0.4225765930175781,1.2378022583007813,10.005967288208007,-161.0046255485748,-21.040438064315016,-169.57629057841976,26.0,10558.0,-3302.0,-45.24454772308797,-3.115467532908582,-80.5737265834817,7.745233615637055,2.053293031657371,-3.672691184873946,1.2441480320227651,0.9413555422003044,-0.5891901194019913,0.17052770098645803,0.2099723961758833,-0.08428788819246281,10.091090465371398,234.7792746566692,11062.334473337894,0,0
2026-03-12T18:31:19.947,3017409,-0.13407529296874998,1.015740054321289,9.471461767578125,-162.3642555046888,-19.197203019169816,-165.93018733214618,19.0,10558.0,-3302.0,-46.07335049220806,-3.2457321911241137,-82.23302845680317,7.394456930735068,1.477335827648565,-3.984470201275001,1.298321212310164,0.9417869669696382,-0.6195992990935202,0.1833274021964501,0.2191708755797341,-0.09039339730221463,9.526714651800557,232.9452964483984,11062.320235827563,0,0
2026-03-12T18:31:19.957,3017419,-0.45549686584472654,1.2593500732421874,9.906009368896484,-162.17511506431367,-19.34142677763623,-168.97577234557448,19.0,10563.0,-3264.0,-46.87099798758691,-3.3483834388646136,-83.92278618025891,7.960712995678323,1.6486354131363037,-3.9901638190290925,1.357259417132943,0.9438992212844861,-0.6496084232245539,0.19670309637141178,0.2283812579247864,-0.09679259205292572,9.996122329105141,235.00568158174698,11055.8141265128,0,0
2026-03-12T18:31:19.967,3017429,-0.26755203552246093,1.150413897705078,9.938929641723632,-162.00110585916858,-18.594112635425333,-169.13771055792853,4.0,10563.0,-3264.0,-47.66460632285566,-3.4583329202979796,-85.6141632858382,8.05061548412232,1.2388185461656454,-3.9902698897111417,1.4161990883945537,0.9419430956449504,-0.6791684552898404,0.21065422216810198,0.23756288819235466,-0.10348069232921829,10.008864004015534,234.94183207140875,11055.798523851636,0,0
2026-03-12T18:31:19.977,3017439,-0.2914940521240234,1.1324573852539062,9.702502227783203,-160.80101739043508,-21.746583624591302,-166.88669371329425,4.0,10565.0,-3304.0,-48.43366728473975,-3.595023268378346,-87.28303022297115,7.9712559798646705,1.020449728491923,-4.2457383438890774,1.4734729734703025,0.9378653790359216,-0.7108014511478001,0.2251635629509022,0.24669460044073116,-0.11047811813385561,9.772715998737393,232.76823157745395,11069.582512452762,0,0
2026-03-12T18:31:19.989,3017449,-0.12689268798828124,1.0271125122070313,9.667786303710937,-159.61693599920028,-21.446856934623998,-171.2957582162307,18.0,10565.0,-3304.0,-49.18842315068583,-3.7411328518039526,-88.99598780513345,7.978702880390117,0.6280826894373638,-4.285511859824416,1.5299611022400905,0.9299840128413408,-0.7423517211998537,0.2402227107993298,0.25573844612857544,-0.11778373371050829,9.72302184926157,235.11650455257367,11069.596424441137,0,0
2026-03-12T18:31:20.001,3017459,-0.24779987182617186,1.1049240661621094,9.744999307250977,-159.88758111926427,-21.651108379854076,-166.47209755893223,18.0,10566.0,-3195.0,-49.92845775921846,-3.8765689207569576,-90.66070878072277,8.175102365459276,0.5199532944213408,-4.4080739513862675,1.5875364440062631,0.9211557925987709,-0.7746359738030106,0.255841977164153,0.2646850540505086,-0.12540456335508987,9.81056947719057,231.83133600942767,11038.510089681487,0,0
2026-03-12T18:31:20.007,3017469,-0.07541735229492187,1.1420341918945311,10.444106192016601,-159.57657462972313,-18.71901970946575,-170.59432975421765,19.0,10566.0,-3195.0,-50.65775501326909,-3.996633579462989,-92.36665207826495,8.813297488306242,0.11130636381080522,-4.088024089993909,1.6505343776059855,0.9084348233933257,-0.8032834714824055,0.27207497361927263,0.2734956328821574,-0.133303960671844,10.506630479016708,234.34485318378492,11038.511765632176,0,0
2026-03-12T18:31:20.020,3017479,-0.40402153015136716,1.1665747589111328,9.713874685668944,-159.93044865934527,-17.381498132708494,-169.42678337388023,19.0,10578.0,-3250.0,-51.37048265531009,-4.072421130478738,-94.06091991200375,8.350314324802472,0.17804655570216255,-4.695481682008936,1.7080269580412,0.8965620596160921,-0.8374847139779575,0.28886608795648494,0.28217879222484,-0.14153712900381193,9.792011615282856,233.63497129097894,11066.026613016978,0,0
2026-03-12T18:31:20.027,3017489,-0.6392518432617187,1.2785036865234374,9.80006594543457,-160.25601276659765,-16.150978282091813,-168.3526407039698,4.0,10578.0,-3250.0,-52.06695582533803,-4.1149098444495955,-95.74444631904345,8.572633085214035,0.14019960887708277,-4.8493510190630715,1.7668469895599401,0.8844945948692899,-0.8726885508060594,0.30622802329423227,0.29073271443535936,-0.15011375049736064,9.903762271502375,232.99239335076254,11066.011024755036,0,0
2026-03-12T18:31:20.037,3017499,-0.277727392578125,1.064222637939453,9.60852981262207,-159.03553174526985,-16.53890001952447,-169.3644294476522,4.0,10564.0,-3293.0,-52.75764829020276,-4.191410755531045,-97.43809061351998,8.306315104465511,-0.43891470987657205,-4.872480287624853,1.8221614884955264,0.8669038660539664,-0.9075921533770733,0.32412518854100836,0.2991023513428031,-0.15903048235910025,9.671274346627655,232.9166063926858,11065.349565196755,0,0
2026-03-12T18:31:20.060,3017509,-0.7356184600830078,1.254561669921875,9.329605319213867,-157.59268920564827,-15.455788017962512,-164.53527509184005,11.0,10564.0,-3293.0,-53.40369134539672,-4.213755146953837,-99.08344336443838,8.303608997010326,-0.24568654225475284,-5.318185823638578,1.8766196147886451,0.8514802956219476,-0.9463624014392572,0.3425484933042059,0.3073095371447236,-0.16832561226711934,9.442276998412815,228.3554111990161,11065.354309736313,0,0
2026-03-12T18:31:20.060,3017519,-0.3363853332519531,1.1097124694824219,9.581595043945311,-157.5452740691964,-14.139324976525511,-162.09245308449286,11.0,10592.0,-3289.0,-54.05536097071454,-4.25986103379367,-100.70436789528331,8.389709159990007,-0.8872512280434671,-5.118671127114126,1.931108955792717,0.8299686665913902,-0.9825858760197425,0.36149772327927093,0.31529361458682686,-0.17797331955628945,9.65150664111615,226.48266432395775,11090.901947091588,0,0
2026-03-12T18:31:20.068,3017529,-0.6242880828857421,1.303044253540039,9.849745629882811,-154.7816521436607,-13.168178978403471,-167.52505683773342,23.0,10592.0,-3289.0,-54.656089480309916,-4.271739002557106,-102.37961846366065,8.791319879502593,-0.9387782358335033,-5.231003694755212,1.988736822268927,0.8082721709695594,-1.0193724742727852,0.3810037064104582,0.3230529599602259,-0.1879788772547183,9.955156900346292,228.4631380472882,11090.920340530807,0,0
2026-03-12T18:31:20.077,3017539,-0.2567781280517578,1.131260284423828,9.789292037963866,-155.11911997216785,-16.354724660131193,-164.52305229071476,23.0,10570.0,-3306.0,-55.26529271134877,-4.346367594036289,-104.02484898656779,8.577788621759163,-1.5156494869951886,-5.19142818131203,2.0433969878592206,0.7812189409581134,-1.055217454744617,0.4010362386127614,0.33053428422043724,-0.19833252075036228,9.857784915623956,226.7096229424366,11074.9747178041,0,0
2026-03-12T18:31:20.090,3017549,-0.6619967590332031,1.3072341064453123,9.622296472167967,-155.3495903743944,-15.686346687320697,-168.72120810745756,11.0,10570.0,-3306.0,-55.850458746686506,-4.377183607712298,-105.71206106764237,8.640059459273074,-1.402402997216781,-5.550087009752616,2.097850618715172,0.7556869873211565,-1.0940575499695109,0.4215927300551132,0.33775306293955515,-0.20906382315380734,9.733226089859437,229.88345474854634,11074.956297882172,0,0
2026-03-12T18:31:20.104,3017559,-0.41539398803710936,1.188122573852539,9.707290631103515,-158.20162314444286,-15.15143895233504,-165.14351145886096,11.0,10569.0,-3231.0,-56.466317809545075,-4.4242848882829096,-107.36349618223097,8.573585440314037,-1.893489360353878,-5.479525140192131,2.1508326760215377,0.7257008123118535,-1.1316200093508606,0.44265795575851324,0.344665060991611,-0.22015964322406864,9.788548350624081,229.19358421392513,11051.8434208959,0,0
2026-03-12T18:31:20.117,3017569,-0.7517793212890624,1.3545195892333983,9.683947164916992,-160.82549329288744,-17.299323836148236,-170.01203054215208,19.0,10569.0,-3231.0,-57.08401732197976,-4.462372567228966,-109.0636164876525,8.728846203431123,-1.883849181814259,-5.752382572281084,2.204549320985011,0.6962593856863052,-1.1713066775475662,0.464238745519395,0.35127602719362555,-0.23164083728954474,9.807075413110613,234.66613822014068,11051.854278807697,0,0
2026-03-12T18:31:20.139,3017579,-0.6733692169189452,1.4413093994140624,10.289680184936524,-163.39945382945646,-19.275377929256376,-174.4910680987799,19.0,10584.0,-3290.0,-57.717635746285524,-4.529678417210292,-110.8085271686403,9.209786730481476,-2.4205746547764,-5.596072377498529,2.2621974804654785,0.661972834551463,-1.2088583903027132,0.4863738596037257,0.35753785978360103,-0.2434856917713793,10.411931482458415,239.82921955494368,11083.569686702926,0,0
2026-03-12T18:31:20.139,3017589,-0.2747346405029297,1.1953051788330078,10.02332525024414,-164.08749752309996,-18.693347694915868,-170.8517826508775,7.0,10584.0,-3290.0,-58.36612494434467,-4.622477468596212,-112.51704499514908,8.698284155645101,-2.939688991380016,-5.603155733674475,2.3139426171916004,0.6230873054680979,-1.2459165984248661,0.5090037724898661,0.3634049641054437,-0.2556889128978723,10.098083118365537,237.62255727606973,11083.555611806169,0,0
2026-03-12T18:31:20.139,3017599,-0.34715924072265625,1.159392153930664,9.667187753295899,-164.56049772125195,-17.8378798793226,-169.8236400388073,7.0,10545.0,-3296.0,-59.00897112410758,-4.698212684847426,-114.21528139553715,8.378194833294868,-3.030840066349061,-5.864684932923208,2.361758697041681,0.5838872212325381,-1.2849949960377867,0.5320887381008226,0.3688745924814513,-0.2682703239953919,9.74264998665606,237.1464022178825,11048.107982817692,0,0
2026-03-12T18:31:20.148,3017609,-0.7032967376708984,1.226429800415039,9.187748870849608,-165.6356579035518,-16.490849488976792,-173.3577488357027,20.0,10545.0,-3296.0,-59.641299779735164,-4.72508996017261,-115.94885888389418,8.121944933981519,-2.844420973372987,-6.291430876535475,2.4063334741857734,0.5471113663263262,-1.3276906652310942,0.5555959207698377,0.3739713604385699,-0.28126568341705516,9.295885416159283,240.33316118961426,11048.123867879107,0,0
2026-03-12T18:31:20.159,3017619,-0.3124433166503906,1.1719617126464843,9.993996279907225,-163.58480527126764,-18.37158152985865,-167.8091289288465,20.0,10565.0,-3227.0,-60.257665614782816,-4.808496461468207,-117.62695017318264,8.50075056393441,-3.724950843410709,-5.906257995499565,2.453970865127741,0.5022139300238357,-1.3659519465082985,0.5795554937916939,0.37861450623906945,-0.294630277679256,10.067327188724336,235.06894153716908,11046.86172630037,0,0
2026-03-12T18:31:20.167,3017629,-0.07062894897460938,1.0097545501708984,9.670779055786133,-163.69802084956623,-21.301855007469957,-173.10439861453878,12.0,10565.0,-3227.0,-60.87681380430689,-4.939949578763097,-119.35799415932803,7.987471803126692,-4.034394305604233,-6.002373849794809,2.495837899411623,0.4549419371632765,-1.4045860497311529,0.6,0.3827807616850915,-0.30836746203839094,9.723608396364789,239.19854488797677,11046.850139293101,0,0
2026-03-12T18:31:20.177,3017639,-0.5392939239501953,1.1276689819335937,9.172186560058593,-165.48217918160094,-24.71770660687236,-171.33604672537567,12.0,10564.0,-3247.0,-61.488525732679676,-5.059222186090845,-121.07135462658178,7.795880588444592,-3.7215382291980657,-6.480108158827047,2.5351897547166278,0.4114606565482264,-1.447346324349632,0.6,0.38650847288232315,-0.32251808435660534,9.25696935080506,239.48143467516437,11051.753209332897,0,0
2026-03-12T18:31:20.187,3017649,0.005985504150390624,1.082777700805664,10.357914932250976,-165.36360484707288,-22.820290078322568,-176.9091629873456,21.0,10564.0,-3247.0,-62.105512187156094,-5.208607659631536,-122.84044625645524,8.305248127620933,-4.947563490898557,-5.9332388210072065,2.5789686024529446,0.35655524631465224,-1.4840785318713086,0.6,0.38968395132012423,-0.3370215108056431,10.414357643146777,243.233919090576,11051.766646106857,0,0
2026-03-12T18:31:20.214,3017659,-0.5578489868164063,1.2395979095458984,9.79946739501953,-165.25451645930707,-21.074666872056763,-182.03642994835798,21.0,10567.0,-3300.0,-62.693545156286895,-5.289577626610463,-124.66081055593882,8.1237843547817,-4.561234322138552,-6.478493015865556,2.6203033493107504,0.30627875954686773,-1.5256305100995147,0.6,0.3923539921766773,-0.35192553809073157,9.893298726688359,246.75992102104223,11070.317520288205,0,0
2026-03-12T18:31:20.227,3017669,-0.12868833923339842,1.1695675109863282,10.442909091186523,-167.4741551425625,-24.02869352229222,-176.59351555248935,19.0,10567.0,-3300.0,-63.30690809095244,-5.436392053857325,-126.42674571146372,8.21096532960708,-5.471025220217604,-6.189091357223219,2.661876807567719,0.24779497973452133,-1.5637086023166706,0.6,0.3944371100320485,-0.36719506148978437,10.508986589495466,244.56132255181038,11070.313907021788,0,0
2026-03-12T18:31:20.228,3017679,-0.13946224670410157,1.064222637939453,9.828796365356444,-165.5962227311575,-23.786398040508843,-174.2260343082902,19.0,10563.0,-3252.0,-63.89573202422811,-5.5770191842269945,-128.16900605454663,7.595349681832545,-5.377289540967587,-6.4670874633360285,2.6967628498202534,0.19111175305997277,-1.6039537847957803,0.6,0.39595187933508563,-0.3828513647384044,9.887226989050196,241.54215521387184,11052.277321891628,0,0
2026-03-12T18:31:20.228,3017689,-0.3238157745361328,1.2593500732421874,10.371681591796875,-161.0685249126649,-22.523486197268138,-174.847951563627,23.0,10563.0,-3252.0,-64.41997486653143,-5.688591801976985,-129.9174855701829,8.011450458105921,-5.85069509981353,-6.512924645517012,2.735224194085293,0.1306157300309099,-1.644046785782186,0.6,0.39686077859875935,-0.39889254076363007,10.452875121440593,238.79318104589322,11052.284922132618,0,0
2026-03-12T18:31:20.237,3017699,-0.5776011505126952,1.2198457458496093,9.426570486450196,-158.58304291965175,-23.521607301486686,-172.46011543853683,23.0,10563.0,-3280.0,-64.90511740379533,-5.7827894640325,-131.64208672456826,7.341795812837476,-5.368936007789697,-6.986288630314156,2.7665125199304628,0.07577247440371775,-1.6882010270040477,0.6,0.3972208848394537,-0.41535877648263686,9.522703285766855,235.46621610917967,11060.555953477204,0,0
2026-03-12T18:31:20.248,3017709,0.027533319091796873,1.1288660827636718,10.481216317749023,-157.17639948607962,-25.31987871736775,-176.42330620345388,4.0,10563.0,-3280.0,-65.38751908936658,-5.947693112194223,-133.4063197866028,7.483261033015365,-6.63959919266248,-6.4828691575748625,2.7987249533067073,0.009235835239936546,-1.7267342728010993,0.6,0.3969159299486612,-0.43219349309143723,10.54186853531777,237.63564502285334,11060.532762936875,0,0
2026-03-12T18:31:20.257,3017719,-0.2902969512939453,1.1282675323486326,9.707290631103515,-151.96228752719324,-27.53428841997833,-170.30944170717757,4.0,10567.0,-3242.0,-65.80408967441213,-6.104168332938672,-135.1094142036746,7.002163612242266,-6.175565504477936,-6.904780466667176,2.825715390587693,-0.05173202250777017,-1.7688453463057545,0.6,0.3960022111138599,-0.4494320646079403,9.776950001978772,229.9042840051103,11053.147470290985,0,0
2026-03-12T18:31:20.293,3017729,-0.12449848632812499,1.1719617126464843,10.371681591796875,-150.76530452501777,-24.451545346380065,-173.56468637060337,4.0,10567.0,-3242.0,-66.2053635880837,-6.2432028379116975,-136.8450610673806,7.151546706703354,-6.951864599668983,-6.726433861425453,2.853772394789906,-0.11943190847689311,-1.808568039646209,0.6,0.3944130841370619,-0.46705022725939793,10.43842771544764,231.19851961739144,11053.147470290985,0,0
2026-03-12T18:31:20.303,3017739,-0.07721300354003906,1.264737026977539,10.881646545410156,-154.94408016301634,-23.93542171866966,-167.2795114609551,4.0,10566.0,-3292.0,-66.639039078555,-6.379261263661584,-138.51785618199017,7.269179554645278,-7.576614639538397,-6.680999293215887,2.882567227481313,-0.19227008404919294,-1.8472473620896923,0.6,0.39209789291327335,-0.48503717817941455,10.95517015543622,229.26623681874662,11066.961461937057,0,0
2026-03-12T18:31:20.304,3017749,-0.7116764434814453,1.3868413116455078,10.054449871826172,-158.78855374997502,-23.460587981176086,-161.4971505440787,10.0,10566.0,-3292.0,-67.0857193159801,-6.454495316939374,-140.13282768743096,7.052869692451939,-6.879250659521757,-7.266037106676667,2.908799485539745,-0.25714665178474433,-1.891109117159112,0.6,0.38913689996903045,-0.5034443210816547,10.174565072225857,227.6961431915087,11066.965257016036,0,0
2026-03-12T18:31:20.313,3017759,-0.3716998077392578,1.1390414398193358,9.624092123413085,-157.76546944997705,-21.743740942682,-166.9773785005524,10.0,10567.0,-3254.0,-67.53217735694393,-6.538906948971274,-141.8026014724365,6.293892006012683,-6.9181865598482,-7.240652437953946,2.9271623295158737,-0.3214335896224779,-1.9340629069155717,0.6,0.38553664150873285,-0.5222621652006596,9.698387770585423,230.74700117633347,11056.676942011103,0,0
2026-03-12T18:31:20.317,3017769,-0.7769184387207031,1.3281833709716797,9.585186346435547,-157.62423189397887,-24.24424166726744,-167.4591882205082,20.0,10567.0,-3254.0,-67.95345798834872,-6.610775253501334,-143.47719335464157,6.423304005592216,-6.918784985763464,-7.5450022387954805,2.9465244390282193,-0.38476211788791087,-1.9793702353639737,0.6,0.3813073313095239,-0.5415138116867451,9.707907633637864,231.24826800142588,11056.690508465903,0,0
2026-03-12T18:31:20.317,3017779,-0.39743747558593745,1.13006318359375,9.462483511352538,-158.37429334246056,-23.904702333886043,-167.82245316286753,19.0,10548.0,-3222.0,-68.39198795545151,-6.71125286354837,-145.15541788627024,5.821635316538314,-7.173654716503244,-7.43582023003391,2.9596696803106983,-0.4496511850771492,-2.022922511099348,0.6,0.37643400863929366,-0.5611812937609407,9.538007839613721,231.9875586556277,11029.140900360282,0,0
2026-03-12T18:31:20.327,3017789,-0.3716998077392578,1.2982558502197266,10.437522137451172,-157.3043498750637,-22.87232614717516,-172.15665690983812,19.0,10548.0,-3222.0,-68.80920244239577,-6.805517004953604,-146.8769844553686,6.137651113370113,-8.175762005266671,-7.30631965917082,2.9757304985727338,-0.5234376730528687,-2.0645459220756903,0.6,0.3708284322768562,-0.5812449262287159,10.524518866413155,234.31968827089824,11029.140900360282,0,0
2026-03-12T18:31:20.337,3017799,-0.3920505218505859,1.1091139190673827,9.44213279724121,-154.6400018850586,-24.482540055401145,-165.50412435705107,19.0,10572.0,-3307.0,-69.19977576496765,-6.909165998837031,-148.53202569893912,5.382964568207453,-7.5159182518438605,-7.554456769632331,2.9841167420909858,-0.5896179027377376,-2.107989132425433,0.6,0.36456732099622935,-0.6,9.515130532887632,227.82567925887872,11077.174459220185,0,0
2026-03-12T18:31:20.347,3017809,-0.6775590698242188,1.2808978881835937,9.64623848876953,-151.22880173425392,-23.643936850969055,-169.22379440848698,16.0,10572.0,-3307.0,-69.53792429866486,-6.978675512651732,-150.224263643024,5.523320223520699,-7.76803501086043,-7.732941135726421,2.9937596951613,-0.6572887790536468,-2.1525387656259567,0.6,0.35763643877248724,-0.6,9.754470906987878,228.17948816183448,11077.169719743397,0,0
2026-03-12T18:31:20.357,3017819,-0.3890577697753906,1.2437877624511717,10.20229182434082,-149.2104975955136,-26.232421902891527,-161.52589085580803,16.0,10572.0,-3232.0,-69.86031719153442,-7.099867075213781,-151.83952255158206,5.318511802049654,-8.503233040431269,-7.527704523066862,3.0012406409840695,-0.73118629281609,-2.194398573693776,0.6,0.34997425126848203,-0.6,10.285189955234538,221.45547175076638,11055.010809583137,0,0
2026-03-12T18:31:20.367,3017829,-0.44891281127929683,1.024718310546875,8.798691101074219,-147.3536577878725,-28.613828150660204,-162.68381958734338,16.0,10572.0,-3232.0,-70.16420263122133,-7.231698075490267,-153.4663607474555,4.478830757390959,-7.403349543892846,-7.857540973338406,3.0003385143296093,-0.7931414914311932,-2.238879373675753,0.6,0.3417007935178159,-0.6,8.869528477896859,221.3546402956763,11055.010809583137,0,0
2026-03-12T18:31:20.377,3017839,-0.430956298828125,1.1474211456298828,9.533112460327148,-145.80536516484267,-30.804721898607387,-163.7491140203559,16.0,10576.0,-3248.0,-70.44497444745862,-7.388101473044464,-155.10385188765906,4.577126854575095,-8.202705928440244,-7.769972066000191,3.0004181361322297,-0.8620410224548617,-2.2818304079207183,0.6,0.332747302909974,-0.6,9.611583209762218,221.40891523277733,11063.522766280186,0,0
2026-03-12T18:31:20.387,3017849,0.032920272827148434,1.1522095489501953,10.658387240600586,-145.50093595165524,-33.860344146718795,-162.88918489872742,4.0,10576.0,-3248.0,-70.72893529153492,-7.613443475183512,-156.73274373664634,4.390377082458102,-9.477979657507335,-7.393689195230019,2.9986570783524584,-0.9424685067444859,-2.3204307903749233,0.6,0.3229992952246866,-0.6,10.720535861590706,221.0202068262396,11063.511919820035,0,0
2026-03-12T18:31:20.399,3017859,-0.316034619140625,1.1162965240478515,9.666589202880859,-145.30086107552282,-34.11151661498129,-166.17805010682923,20.0,10569.0,-3283.0,-71.00040477987038,-7.807337575907614,-158.39452423771462,4.054544575818453,-8.615780913309639,-7.777381618562997,2.9936144862489833,-1.0131969211394185,-2.362231537462145,0.6,0.31255445868727916,-0.6,9.735961309873282,223.36311273881006,11067.169918276308,0,0
2026-03-12T18:31:20.409,3017869,0.062249243164062495,1.033696566772461,10.192715017700195,-147.036792189481,-30.742595285782787,-167.36380609828288,20.0,10569.0,-3283.0,-71.29684812325834,-7.998264002611026,-160.06816229869744,3.645738311558126,-9.300187607150695,-7.530920308687629,2.984620791324096,-1.0896058152527617,-2.4009776294407863,0.6,0.30135674213421676,-0.6,10.24518633273611,224.89012653734198,11067.169918276308,0,0
2026-03-12T18:31:20.417,3017879,-0.46148236999511716,1.1617863555908203,9.527126956176756,-144.4738488143225,-30.763187662920167,-164.45470161042024,11.0,10572.0,-3287.0,-71.54617364081096,-8.140015303599471,-161.71270931480166,3.6421514707711053,-8.701618657834532,-7.977599166767389,2.97572667144133,-1.1589726718036402,-2.443542316791833,0.6,0.2894772484007642,-0.6,9.608790847602164,221.05297009581238,11071.209238380421,0,0
2026-03-12T18:31:20.431,3017889,0.047285482788085934,1.0492588775634766,10.121487518310547,-144.11594090917671,-27.982132649886555,-168.97832548158664,11.0,10572.0,-3287.0,-71.80374540348167,-8.297532758916592,-163.40249256961752,3.094607526811195,-9.452881869677512,-7.658600115739815,2.9615726555088,-1.234698968142909,-2.4823263931799926,0.6,0.27685312846061577,-0.6,10.175838525268787,223.84387115651435,11071.209238380421,0,0
2026-03-12T18:31:20.438,3017899,-0.40581718139648437,1.2018892333984375,9.804255798339844,-146.18666563644257,-27.903562037895632,-164.8200594430597,10.0,10569.0,-3303.0,-72.06179386307741,-8.412630271601085,-165.0506931640481,3.154752773582678,-9.195238967552747,-8.010049782776363,2.9482233804959574,-1.30675158745116,-2.52399048764264,0.6,0.26352182697351806,-0.6,9.885982858237016,222.06936299075,11073.10570707243,0,0
2026-03-12T18:31:20.447,3017909,-0.584185205078125,1.3479355346679687,10.17715270690918,-152.97173238552716,-24.311277074863984,-169.95445468761494,10.0,10569.0,-3303.0,-72.37446721532224,-8.477053607103544,-166.75023771092427,3.136873769151374,-9.64533922573746,-8.115468769007292,2.934898236414659,-1.3821569050129066,-2.5660679977027225,0.6,0.2494505576654656,-0.6,10.282637783137245,229.9476152740113,11073.10570707243,0,0
2026-03-12T18:31:20.457,3017919,-0.5482721801757812,1.2192471954345703,9.603142858886718,-159.213993794685,-21.006374908874868,-174.67809831260575,11.0,10565.0,-3288.0,-72.74857178809816,-8.508185493214281,-168.49701869405033,2.6764308956197205,-9.183432921043206,-8.222731971505832,2.9172376071902932,-1.4518813657099885,-2.6085708876565143,0.6,0.23469681226435732,-0.6,9.695747463466482,237.28211402668882,11064.82218564763,0,0
2026-03-12T18:31:20.478,3017929,-0.40880993347167965,1.0193313568115234,8.933963494873046,-162.39687429111018,-20.365864916164877,-171.90385044759728,11.0,10565.0,-3288.0,-73.15931616905686,-8.542119843736378,-170.2160571985263,2.137702138110693,-8.608066405078588,-8.272606963158164,2.8945354091428293,-1.5148925993143627,-2.6509275029287744,0.6,0.21932833838494248,-0.6,9.001214679386807,237.35721398772782,11064.82218564763,0,0
2026-03-12T18:31:20.478,3017939,-0.32022447204589843,1.1168950744628905,9.642647186279296,-161.48512434782137,-24.256595722871683,-172.5515424117895,22.0,10560.0,-3270.0,-73.55344912131386,-8.624574151245792,-171.9415726226442,1.9005337965891802,-9.390631687305962,-8.214591307519072,2.86983763590209,-1.584666932444611,-2.6920773147639054,0.6,0.20327818739143586,-0.6,9.71239636129604,237.57075285140166,11054.72677183837,0,0
2026-03-12T18:31:20.488,3017949,-0.3124433166503906,1.0199299072265624,9.216479290771483,-160.08631439999564,-23.51606806504195,-173.70741901884634,22.0,10560.0,-3270.0,-73.93227453685695,-8.6978912023177,-173.67864681283265,1.5492871257745557,-9.023005065070638,-8.30117420922382,2.842050549552438,-1.6497735283488875,-2.7334627210033013,0.6,0.186593671655839,-0.6,9.278004546183102,237.39187209675694,11054.72677183837,0,0
2026-03-12T18:31:20.506,3017959,-0.36212300109863277,1.1563994018554686,9.781510882568359,-157.519409247996,-23.394782619838594,-169.97082549733864,2.0,10577.0,-3240.0,-74.27372086675095,-8.766278360406579,-175.37835506780604,1.3742803606668674,-9.64943931452328,-8.34171921803198,2.81295645286172,-1.7200739026717085,-2.774626714485867,0.6,0.1692235396964928,-0.6,9.856284684927664,232.9157823418454,11062.12154154889,0,0
2026-03-12T18:31:20.516,3017969,0.0430956298828125,1.0480617767333984,10.165181698608398,-157.47785650815635,-25.123200010251505,-174.69315945755156,2.0,10577.0,-3240.0,-74.62247334709767,-8.885872081194744,-177.12528666238157,0.7229235357994006,-10.05558376392105,-8.135175676224028,2.7778829028964185,-1.7933202942062552,-2.8131387941793853,0.6,0.1511390464176758,-0.6,10.219158952031604,236.5336137432059,11062.12154154889,0,0
2026-03-12T18:31:20.517,3017979,-0.3537432952880859,1.1695675109863282,9.817423907470703,-157.19962798750385,-26.553344009431385,-170.15770670094744,20.0,10571.0,-3270.0,-74.9496466162915,-8.983397601525157,-178.82686372939105,0.7713086649621451,-9.770622123817736,-8.459482260774084,2.7438120497028495,-1.862661117712766,-2.854267612535319,0.6,0.1323799228053076,-0.6,9.893171112474167,233.17471618341997,11065.23117697954,0,0
2026-03-12T18:31:20.527,3017989,-0.32142157287597656,1.0085574493408203,9.097367758178711,-157.02365774850355,-26.909076488676874,-173.58509016487164,20.0,10571.0,-3270.0,-75.27719308709194,-9.083533343750666,179.43728536896023,0.43944856466262594,-9.05974139816461,-8.537567322993159,2.706983437319234,-1.923959653718996,-2.895548636478772,0.6,0.11302718594184953,-0.6,9.158744460005448,235.61050701897668,11065.23117697954,0,0
2026-03-12T18:31:20.537,3017999,-0.296881005859375,1.1941080780029296,10.059836825561522,-156.8617651286233,-26.916350369582727,-169.9382829516819,31.0,10597.0,-3235.0,-75.59158309348082,-9.187227139815203,177.7379025394434,0.11137756357430946,-10.052783483461795,-8.52466378186594,2.6674757547606522,-1.99412017622531,-2.93608334518297,0.6,0.09299289819541684,-0.6,10.13480879891257,232.82852765297343,11079.828292893351,0,0
2026-03-12T18:31:20.547,3018009,-0.7559691741943358,1.1528080993652343,8.793304147338867,-158.79282391833343,-26.92304234001611,-166.58322031554735,31.0,10597.0,-3235.0,-75.9097848734946,-9.241527623819996,176.07207033628794,0.30478656140282545,-8.85106521782083,-8.91872917257697,2.6304657660690602,-2.0513913659774654,-2.979891577355109,0.6,0.07240650555110655,-0.6,8.900710855538511,231.71098469321504,11079.828292893351,0,0
2026-03-12T18:31:20.558,3018019,-0.2705447875976562,1.1067197174072265,9.706692080688477,-160.64939800486675,-27.32919895281482,-167.89656269030357,4.0,10568.0,-3282.0,-76.25596633293323,-9.348303389425768,174.39310470938491,-0.482207358090871,-9.690950253154481,-8.635815503163343,2.586259037100829,-2.116076355481375,-3.020255986400941,0.6,0.0511944962542965,-0.6,9.773325645055248,233.97514816310655,11065.900957445805,0,0
2026-03-12T18:31:20.568,3018029,-0.1753752716064453,0.9726444244384765,9.248202462768553,-159.7174461644774,-27.542863036589633,-169.58483767507929,4.0,10568.0,-3282.0,-76.5952867715491,-9.463169706268966,172.6972563326341,-0.8052646230125531,-9.19395729207812,-8.653939866007654,2.539533295007643,-2.1748956894761236,-3.0601934542851024,0.6,0.029416093820175727,-0.6,9.300862457570299,234.57896129627238,11065.900957445805,0,0
2026-03-12T18:31:20.577,3018039,-0.5051765502929687,1.227626901245117,9.80665,-156.9400504713192,-26.939433993662462,-166.17805066107294,-2.0,10564.0,-3288.0,-76.8851867788592,-9.54268391488209,171.03547582602337,-0.8709509719238141,-9.813577457255546,-8.875093628609996,2.492861428509079,-2.238935992087949,-3.101710224712634,0.6,0.007019707165396942,-0.6,9.896092934998467,230.1544200473961,11063.86207433914,0,0
2026-03-12T18:31:20.589,3018049,-0.17058686828613281,0.9696516723632812,9.226654647827148,-156.62484643361367,-25.344279274169466,-168.88380660818711,-2.0,10564.0,-3288.0,-77.18467373901943,-9.63338393091829,169.3466377599415,-1.3566115882503145,-9.118270815389495,-8.749662501748466,2.442105882937177,-2.295166919738216,-3.141368746984167,0.6,-0.015916030069953232,-0.6,9.279034445222138,231.7227117628993,11063.86207433914,0,0
2026-03-12T18:31:20.598,3018059,-0.3226186737060547,1.1552023010253905,9.7928833404541,-152.81485871892457,-28.596736932235906,-163.45310207953213,17.0,10576.0,-3297.0,-77.43121424334426,-9.742452569617878,167.71210673914618,-1.6111072844812018,-9.688666418412133,-8.872189923117983,2.3896048879409792,-2.356172780163502,-3.1816392865221164,0.6,-0.03943828011371667,-0.6,9.866059967619377,225.5816282144411,11078.008575551836,0,0
2026-03-12T18:31:20.619,3018069,-0.6871358764648438,1.3389572784423827,9.734225399780273,-151.6296700214106,-28.388997977657034,-169.25685391316955,17.0,10576.0,-3297.0,-77.64581869465631,-9.815943642603507,166.0195382000145,-1.5812683121007305,-9.700622213072052,-9.160410381634218,2.3381853217476722,-2.4163813172598094,-3.2241447394833815,0.6,-0.06353849119302844,-0.6,9.849878498740296,229.00955140247163,11078.008575551836,0,0
2026-03-12T18:31:20.635,3018079,-0.42497079467773435,1.1982979309082031,9.686341366577148,-153.89929641969775,-27.31787813944447,-165.79630560011597,11.0,10583.0,-3247.0,-77.89125597234475,-9.900388232149961,164.36157514401333,-2.075194085826948,-9.515022481464245,-9.03228325175314,2.282671880176062,-2.473858568943335,-3.264750558420899,0.6,-0.08818879980557934,-0.6,9.769428190913303,227.8588924206527,11069.915040324384,0,0
2026-03-12T18:31:20.635,3018089,-0.13287819213867186,1.0588356842041016,9.696516723632811,-155.98735270612195,-26.332447888288915,-162.6126011521067,11.0,10583.0,-3247.0,-78.16588456502822,-9.999549874797749,162.73544913249225,-2.5981934205446735,-9.35809671811012,-8.891968112283982,2.222839596781056,-2.5289279430825697,-3.303365185950583,0.6,-0.11336460115716863,-0.6,9.755061567810877,226.86628235484372,11069.915040324384,0,0
2026-03-12T18:31:20.637,3018099,-0.42497079467773435,1.1647791076660157,9.56962403564453,-156.78836448963222,-23.9058520572258,-166.88359305993816,21.0,10569.0,-3290.0,-78.43366628098875,-10.047167264591858,161.06661320189286,-2.5936321032809726,-9.268757141567123,-9.115109478375572,2.1639497266120227,-2.5822912817807673,-3.3435985365233236,0.6,-0.13904832646100132,-0.6,9.649612154359872,230.22644208368155,11069.25029078302,0,0
2026-03-12T18:31:20.647,3018109,-0.5883750579833984,1.0779892974853515,8.760383874511719,-156.56529533046165,-23.11338389264774,-167.8529056151431,21.0,10569.0,-3290.0,-78.69410238772602,-10.066920851633459,159.38808414574143,-2.4482493584467653,-8.482867450787245,-9.259286634040809,2.1073752245321415,-2.62711315694431,-3.3846485318207757,0.6,-0.16515413857241398,-0.6,8.846048369930774,230.69789366253374,11069.25029078302,0,0
2026-03-12T18:31:20.657,3018119,-0.2645592834472656,1.1109095703125,9.664195001220703,-157.08007170402473,-23.26431318123592,-162.18467316593166,13.0,10560.0,-3284.0,-78.96256811452288,-10.121702949105028,157.76623741408213,-3.3049485449540184,-9.126113264854155,-9.105117034453373,2.043210852996362,-2.677598675248959,-3.42356420663283,0.6,-0.1917381951995787,-0.6,9.731432407898092,226.97851308940292,11058.861831128916,0,0
2026-03-12T18:31:20.672,3018129,0.03411737365722656,1.1109095703125,10.441113439941406,-156.99366596770275,-22.203168126737047,-162.80989931265714,13.0,10560.0,-3284.0,-79.23341791812,-10.191371133832115,156.13813842095556,-4.125062275318558,-9.618250711172502,-8.955034819243114,1.9719308267895288,-2.7321744646252735,-3.460417836502882,0.6,-0.21884087990598558,-0.6,10.500101615428406,227.2598845881964,11058.861831128916,0,0
2026-03-12T18:31:20.677,3018139,-0.2442085693359375,1.1222820281982422,9.904213717651366,-155.95417269028653,-21.226914676598085,-157.78510736764457,16.0,10561.0,-3257.0,-79.4840930205159,-10.226533475890024,154.56028734727911,-3.941071040175953,-9.135565007330303,-9.157023034583798,1.9035323146419527,-2.7811771629780977,-3.498708245845989,0.6,-0.2464059988842308,-0.6,9.970586950679852,222.86414245727914,11051.833603524801,0,0
2026-03-12T18:31:20.688,3018149,-0.23582886352539062,1.2030863342285156,10.251372958374024,-159.3978388750636,-18.16876150247024,-160.442298778233,16.0,10561.0,-3257.0,-79.7614973585595,-10.23246494503405,152.9558643594968,-4.376390771201451,-9.332592872365481,-9.220481416248646,1.8318718808259893,-2.8313855453262264,-3.5370493641083485,0.6,-0.2744451344831556,-0.6,10.324421509806797,226.89095656243808,11051.833603524801,0,0
2026-03-12T18:31:20.697,3018159,-0.47165772705078124,1.2042834350585936,9.661202249145507,-160.32601176505852,-16.47526058227262,-157.20691487597438,29.0,10571.0,-3173.0,-80.0377057799944,-10.199656524263506,151.38379521073705,-4.174218140254704,-8.799556640440754,-9.412575956727647,1.7632777539320907,-2.8755903950546746,-3.576707496820491,0.6,-0.30289783739526865,-0.6,9.74738880430741,225.14412793711793,11036.974721362734,0,0
2026-03-12T18:31:20.718,3018169,-0.003591302490234375,1.1617863555908203,10.66197854309082,-158.45993082385382,-15.87723973569081,-161.67036168589644,29.0,10571.0,-3173.0,-80.30468970784874,-10.202764704914284,149.7670915938781,-5.287731178962162,-9.309056943235301,-9.167193438962686,1.6847444355103323,-2.924150750019722,-3.613353739741966,0.6,-0.3318072055505704,-0.6,10.72508959807887,226.93378387973377,11036.974721362734,0,0
2026-03-12T18:31:20.744,3018179,-0.4746504791259765,1.208473287963867,9.728838446044922,-156.7431363579455,-15.327060556835546,-165.77673275102472,13.0,10572.0,-3243.0,-80.53782786367393,-10.159116844083231,148.10932426636785,-4.717081899667056,-8.601423731478045,-9.489401804263204,1.6130100122659567,-2.965012512524485,-3.6526240414178286,0.6,-0.36109587334513943,-0.6,9.815090334495068,228.65969190533576,11058.227796532317,0,0
2026-03-12T18:31:20.744,3018189,-0.3962403747558593,1.0019733947753906,8.845976583862305,-157.48368544930986,-15.9408957122887,-165.31459413094274,13.0,10572.0,-3243.0,-80.78404050202987,-10.125520752454392,146.45617832505843,-4.525860716338111,-7.668466533814982,-9.455274649794923,1.544235134026037,-2.996071720194695,-3.690969136097041,0.6,-0.39066553395653925,-0.6,8.91135561183957,228.8758142999945,11058.227796532317,0,0
2026-03-12T18:31:20.744,3018199,-0.277727392578125,1.0875661041259765,9.663596450805663,-156.40499061336507,-14.985624055305605,-167.52942660046733,17.0,10560.0,-3299.0,-81.01655111139587,-10.096708137593021,144.78088405905376,-5.316979875316994,-8.138235279441687,-9.427334245804932,1.4686993552437742,-3.0312922618942753,-3.728463841376764,0.6,-0.42055747811890654,-0.6,9.72856766946994,229.68064523197236,11063.330872752564,0,0
2026-03-12T18:31:20.747,3018209,-0.20231004028320312,1.2389993591308592,10.485406170654297,-152.69259136429585,-13.626774130881158,-169.32707247242993,17.0,10560.0,-3299.0,-81.20423898341032,-10.0630154753367,143.08761333432946,-6.124982224427854,-8.595947460419188,-9.468905516585401,1.386337790004503,-3.07049296045099,-3.7658056030944786,0.6,-0.450811145315693,-0.6,10.560293145927403,228.4127271034638,11063.330872752564,0,0
2026-03-12T18:31:20.757,3018219,-0.4261678955078125,1.1845312713623046,9.752181912231444,-153.03718405515218,-17.176632200410662,-167.38090667463553,16.0,10561.0,-3218.0,-81.38971059510105,-10.04400028253793,141.41380426758312,-5.757009893844773,-7.968844522114552,-9.596555921575154,1.3088361757000644,-3.1029286845870536,-3.8038445948755766,0.6,-0.481358591729402,-0.6,9.833096432825771,227.44622291104716,11040.403117640226,0,0
2026-03-12T18:31:20.767,3018229,-0.8002619049072265,1.2988544006347655,9.305663302612304,-152.95420933074,-17.88250162437781,-173.8304341406647,16.0,10561.0,-3218.0,-81.55627651236921,-9.996459507465682,139.67549992617646,-5.468331327320565,-7.682235409786407,-9.865156199225025,1.2353405694904558,-3.1320547731046435,-3.8439587145148093,0.6,-0.512166460320988,-0.6,9.429889255557532,232.23219813339767,11040.403117640226,0,0
2026-03-12T18:31:20.777,3018239,-0.5051765502929687,1.2036848846435546,9.515754498291015,-153.99787258428083,-19.25190149442758,-169.92399940941152,15.0,10568.0,-3302.0,-81.74167223891371,-9.99092018062443,137.97625993208234,-6.027676923593436,-7.477531633505541,-9.721351143418584,1.1574378432507038,-3.158727638098103,-3.88205464255976,0.6,-0.543209982965267,-0.6,9.60487607000897,230.13071513147744,11071.858606394862,0,0
2026-03-12T18:31:20.787,3018249,-0.0047884033203125,0.9900023864746094,9.75517466430664,-151.99804277753836,-19.631749374873372,-172.8100794566586,15.0,10568.0,-3302.0,-81.9258056711369,-10.0340094038821,136.24815913751576,-6.722855571986424,-7.127408198283641,-9.423471558001763,1.073856148217877,-3.1815516942797255,-3.916645017767681,0.6,-0.5744504744081562,-0.6,9.80528226953013,230.98080905897115,11071.858606394862,0,0
2026-03-12T18:31:20.797,3018259,-0.4950011932373047,1.208473287963867,9.610325463867188,-150.15819935533528,-19.981209424883502,-168.4252731001259,11.0,10562.0,-3280.0,-82.06846921539481,-10.036431042172724,134.5639064065145,-6.5425289166427385,-7.159429187534263,-9.765680815742089,0.9933043961656779,-3.204348796362742,-3.9540872985362254,0.6,-0.6,-0.6,9.698648843549426,226.5255089003657,11059.58249664064,0,0
2026-03-12T18:31:20.823,3018269,-0.3178302703857422,1.3186065643310547,10.760739361572265,-147.42554340690847,-24.54271267089282,-164.39125125211584,11.0,10562.0,-3280.0,-82.18479198476288,-10.102441566061684,132.91999389399334,-7.706440691385164,-7.63113906720886,-9.707961768468993,0.9024963894130489,-3.231450284229308,-3.9903994124776014,0.6,-0.6,-0.6,10.845886361195248,222.17362373221653,11059.58249664064,0,0
2026-03-12T18:31:20.830,3018279,-0.4465186096191406,1.159990704345703,9.624690673828125,-146.5914999343558,-26.41929565722139,-166.67995115194657,-1.0,10564.0,-3233.0,-82.29286221931847,-10.171577551563317,131.25319438247388,-6.981211860742681,-6.740822457648208,-9.746471767473196,0.8201940067435378,-3.249375631173703,-4.026546168200048,0.6,-0.6,-0.6,9.704618893587668,223.53803513505974,11047.641648786404,0,0
