recv_time,timestamp,ax,ay,az,gx,gy,gz,mx,my,mz,roll,pitch,yaw,ax_w,ay_w,az_w,vx,vy,vz,x,y,z,a_norm,g_norm,m_norm,stationary,bias_ready
2026-03-12T18:49:29.785,580525,-0.479438882446289,0.8948328704833984,9.89463691101074,-4.75609756097561,-3.048780487804878,-5.7926829268292686,-1094.0,10419.0,-2935.0,5.167552371338713,2.7628065565239694,0.0,0.0,0.0,0.13992866348198518,0.0,0.0,0.0013782973352975542,0.0,0.0,1.3769190379622567e-05,9.946578663481986,8.091396786903804,10879.64254927523,0,0
2026-03-12T18:49:29.786,580535,-0.469862075805664,0.8565256439208984,9.393650213623046,-5.039024390243903,-3.0097560975609756,-6.392682926829268,-1094.0,10419.0,-2935.0,5.118553189138885,2.734493671685156,-0.06392682926829268,0.0,0.0,-0.36236752102502656,0.0,0.0,-0.002211697206828421,0.0,0.0,-8.339433906972982e-06,9.444314209347061,8.678524850183516,10879.64254927523,0,0
2026-03-12T18:49:29.787,580545,-0.17896657409667968,0.6057330200195312,9.027935910034179,-5.460292682926831,-3.139707317073171,-6.505658536585366,-1103.0,10423.0,-2887.0,5.045568963832335,2.6795468791578725,-0.12898341463414634,0.2437093010207041,-0.19115233609435833,-0.7619479660537074,0.0024005366150539353,-0.0018828505105294296,-0.009683709214355013,2.3981360784388814e-05,-1.8809676600189005e-05,-0.0001050713495244726,9.050003774688193,9.055172622029529,10871.536551932299,0,0
2026-03-12T18:49:29.797,580555,-0.3142389678955078,0.7841010437011718,9.631873278808593,-5.725908292682928,-3.0299941463414637,-7.248620487804877,-1103.0,10423.0,-2887.0,4.983295377410976,2.6374449825223176,-0.2014696195121951,0.13057543644221287,0.0,-0.1388499538440069,0.0036506966147839227,-0.0018546077528714881,-0.010906125621503155,6.042783860529582e-05,-3.7318398374774985e-05,-0.00021391847313376465,9.66884395544288,9.721593968033394,10871.536551932299,0,0
2026-03-12T18:49:29.810,580565,0.1640028137207031,0.6811503723144531,10.207678778076172,-5.994664897560977,-2.8412531512195125,-7.3175113365853655,-1090.0,10430.0,-2993.0,4.906763136637702,2.5561205487626713,-0.27464473287804875,0.6190716628941962,-0.19742465999899927,0.4043902295174995,0.009693792045069996,-0.0037714215375685587,-0.006759289976433238,0.0001572083932969398,-7.495758113671012e-05,-0.0002812298615251989,10.23169432640553,9.876978225369331,10905.551292804963,0,0
2026-03-12T18:49:29.818,580575,-0.3172317199707031,0.8403647827148437,9.797671743774414,-6.144359998439025,-2.7895626552195125,-7.727232380878048,-1090.0,10430.0,-2993.0,4.846175272818893,2.5180172169446537,-0.3519170566868292,0.11515835453166362,0.0,0.0,0.010682694956530833,-0.0037148502145050305,-0.006657900626786739,0.00026377130751938587,-0.00011199397719847867,-0.00034746105892527327,9.838761127852353,10.258895645531403,10905.551292804963,0,0
2026-03-12T18:49:29.828,580585,0.1149216796875,0.7074865905761718,10.158597644042969,-6.28207949124683,-2.7420073988995126,-8.104175741627316,-1097.0,10428.0,-2990.0,4.7713623821399525,2.4435394980757117,-0.4329588141031024,0.5478626441728089,-0.1440989585905178,0.3614340070839184,0.01591890157728504,-0.005078502203404055,-0.0029979071476083424,0.00042253736296894403,-0.0001626162202332867,-0.00037706269027095536,10.183852432250903,10.614178807667805,10903.517459975932,0,0
2026-03-12T18:49:29.838,580595,-0.16759411621093748,0.8176198669433593,9.923367330932617,-6.3843911807275715,-2.712890709426576,-8.250963633516642,-1097.0,10428.0,-2990.0,4.707558005196447,2.394628932028183,-0.5154684504382688,0.248569270084698,0.0,0.14865106779214265,0.018128525363960035,-0.005002324670352994,-0.001488725522641612,0.0006032187939919358,-0.00021242682746987982,-0.0003915579955518741,9.95840394939017,10.779546726623488,10903.517459975932,0,0
2026-03-12T18:49:29.848,580605,0.07841010437011718,0.6476315490722656,9.639055883789062,-6.683395983830342,-2.6422009160870843,-8.332349957469457,-1093.0,10415.0,-2969.0,4.628770598491846,2.3257085038599654,-0.5987919500129634,0.4689359076110781,-0.13725531417210501,-0.15790742949299563,0.022475616173469753,-0.006279254644892934,-0.0030217828203079945,0.0008271469807709066,-0.00027494415454489034,-0.0004213540479311991,9.661106204707078,11.003502322960278,10884.936150478788,0,0
2026-03-12T18:49:29.857,580615,-0.05626373901367187,0.7900865478515624,10.24658455505371,-6.982870646587329,-2.494239476946459,-8.729176595018242,-1093.0,10415.0,-2969.0,4.5566957450345695,2.2709597491107973,-0.6860837159631458,0.3506668507049277,0.0,0.46447410095609953,0.025592550410311245,-0.006185065825219539,0.0015986138164142056,0.001081989412389145,-0.00033645801798428863,-0.00040496254185728997,10.277154149145037,11.453394128481886,10884.936150478788,0,0
2026-03-12T18:49:29.867,580625,-0.4542997650146484,0.8774749084472656,9.707889181518555,-7.151070263153025,-2.6703100748883033,-8.489379052782636,-1098.0,10419.0,-2970.0,4.495379349554391,2.2506195693852327,-0.7709775064909721,0.0,0.11483132869120549,0.0,0.025208662154156576,-0.004961201250232873,0.0015746346091679924,0.00133274195789678,-0.00038568396045613075,-0.00038882697956984445,9.758046057079865,11.416563340446462,10889.539246451155,0,0
2026-03-12T18:49:29.877,580635,-0.30346506042480464,0.7679401824951172,9.568426934814452,-7.261911471369076,-2.67619746401919,-8.639497021242953,-1098.0,10419.0,-2970.0,4.425247735885528,2.217660570901177,-0.8573724767034017,0.0,0.0,-0.20294156363387472,0.024830532221844226,-0.0048867832314793795,-0.0004479593117631937,0.001579466232835107,-0.00043411724097815364,-0.0003929132661147889,9.603989648769513,11.599064611618058,10889.539246451155,0,0
2026-03-12T18:49:29.887,580645,-0.31962592163085934,0.7511807708740234,9.484031326293945,-7.36876343170833,-2.779174837629362,-8.538581161982542,-1085.0,10421.0,-2989.0,4.354216395178955,2.1858837982827484,-0.9427582883232271,0.0,0.0,-0.2876923573377699,0.024458074238516564,-0.004813481483007189,-0.0032750096418637793,0.0018222229282450523,-0.00048176980375241727,-0.00042523769917089324,9.519100980577637,11.615931109917847,10895.347034399592,0,0
2026-03-12T18:49:29.898,580655,-0.24839842224121092,0.9157821350097656,10.673351000976561,-7.501213576683859,-2.644645728667794,-8.840860522682474,-1085.0,10421.0,-2989.0,4.288576399479207,2.146970462097845,-1.0311668935500518,0.15512294163925802,0.11229235463867049,0.9070845302695094,0.02561916410008551,-0.0036351995675711767,0.005708898125918844,0.0020763361546766615,-0.0005176036776287009,-0.00036778056919379307,10.715445874298574,11.892147448409496,10895.347034399592,0,0
2026-03-12T18:49:29.907,580665,-0.6943184814453125,0.9876081848144531,9.885060104370117,-7.6230677100613455,-2.520878948423151,-9.118957534526412,-1092.0,10414.0,-2977.0,4.234742146133253,2.149904808181349,-1.1223564688953158,-0.31622118687168155,0.26121431526612415,0.14340691390116156,0.022120097947898164,-0.001007710568686286,0.007035822755956503,0.0022952395970214875,-0.0005271531025322482,-0.00029712491929259383,9.95850698385048,12.149953847701601,10886.063981072313,0,0
2026-03-12T18:49:29.917,580675,-0.7134720947265625,0.9259574920654297,9.446921200561523,-7.788832049353999,-2.4753061935249088,-9.116270200056983,-1092.0,10414.0,-2977.0,4.178472072410697,2.1577520122710983,-1.2135191708958857,-0.3506255066119581,0.2426408695007375,-0.2972363987706679,0.018334635238551902,0.0013974176544262727,0.0040025068867260765,0.0024761073634575995,-0.0005126657470619975,-0.00025684275057490775,9.518968425028227,12.243342182802609,10886.063981072313,0,0
2026-03-12T18:49:29.927,580685,-0.5602431884765625,0.7457938171386719,8.883685260009765,-7.916944997600801,-2.5211841370673063,-9.133310047467058,-1090.0,10407.0,-2931.0,4.109794823175218,2.154490900511941,-1.3048522713705561,-0.22222297566780125,0.11229004314575042,-0.8775989562368878,0.015870719399645784,0.0024825133145955206,-0.00470188043550816,0.0026321797428966033,-0.0004873527733021262,-0.00030355769337505933,8.932521740630213,12.347134889163513,10866.669683026166,0,0
2026-03-12T18:49:29.937,580695,-0.07601590270996093,0.6835445739746093,9.769539874267577,-8.117735739256151,-2.446318674394605,-9.358742804645303,-1090.0,10407.0,-2931.0,4.028222502728433,2.104748054666847,-1.3984396994170092,0.28352103272488516,0.0,0.0,0.018425340780991215,0.002445275614876588,-0.004631352228975537,0.002813616717555809,-0.00046243711713620693,-0.0003495213444491499,9.79371844382812,12.628070932354973,10866.669683026166,0,0
2026-03-12T18:49:29.949,580705,-0.4333505004882812,0.8822633117675781,9.817423907470703,-8.41953639231078,-2.538418058491817,-9.171018990029776,-1089.0,10417.0,-2991.0,3.9618948882980263,2.0859331931409635,-1.4901498893173069,0.0,0.20370493266650447,0.0,0.018148960669276345,0.004415090067418507,-0.0045618819455409045,0.002992111217924324,-0.0004178679302455598,-0.0003947450237406544,9.866508672602578,12.705894247026054,10892.469462890405,0,0
2026-03-12T18:49:29.958,580715,-0.3268085266113281,0.8337807281494141,9.674968908691406,-8.609388115072258,-2.6036372967393007,-9.60319112936398,-1089.0,10417.0,-2991.0,3.891546982283775,2.0579109615365114,-1.5861818006109467,0.0,0.17455882783018883,0.0,0.0178767262592372,0.00606826817053459,-0.0044934537163577905,0.0031677076020361792,-0.00035682806329167367,-0.0004392398813433281,9.716327366852386,13.157574653256368,10892.469462890405,0,0
2026-03-12T18:49:29.967,580725,-0.7565677246093749,0.9630676177978515,9.221267694091797,-8.740149260988428,-2.6051024105611322,-9.293472424380715,-1104.0,10423.0,-3014.0,3.8365184919929893,2.0713588449378406,-1.679116524854754,-0.41093799536739867,0.3561099185334109,-0.5203166259304464,0.013560836110979765,0.009484926845530667,-0.00955117067602732,0.003300012647182831,-0.0002617168160415306,-0.0005342168365154977,9.302240151945792,13.020959925312448,10906.050660069392,0,0
2026-03-12T18:49:29.977,580735,-0.4034229797363281,0.7978677032470702,9.260173471069335,-8.860449515231304,-2.655230803082095,-9.530482435308308,-1104.0,10423.0,-3014.0,3.765562956493255,2.0514145158278256,-1.7744213492078371,0.0,0.19008461081835681,-0.5055833211045861,0.013357423569315068,0.011214986359408522,-0.014387898828767084,0.003430153295993106,-0.00014941738549499798,-0.0006774177289783653,9.303233614542869,13.281111086024346,10906.050660069392,0,0
2026-03-12T18:49:29.987,580745,-0.4165910888671875,0.7050923889160156,8.77115778198242,-8.9906379442567,-2.4769586802989423,-9.387556035605595,-1107.0,10419.0,-2975.0,3.689461542732432,2.036903072711358,-1.868296909563893,0.0,0.14252172773276606,-0.9990512179700506,0.013157062215775341,0.01245060058218514,-0.024012734843340575,0.0035581621942327086,-2.4886468293473445e-05,-0.0009166275323343594,8.809308272995196,13.232275060255198,10891.81504617114,0,0
2026-03-12T18:49:29.997,580755,-0.3220201232910156,0.8194155181884765,9.65342109375,-9.110411298960067,-2.3129483273384417,-9.256063747879098,-1107.0,10419.0,-2975.0,3.617159547377054,2.0121229487550325,-1.9608575470426841,0.0,0.20800743326940463,-0.11542893390017106,0.01295970628253871,0.014312714791155999,-0.024789518819607153,0.0036840714978010375,0.00011812243893846845,-0.0011633581978099006,9.693486347259684,13.191817164665322,10891.81504617114,0,0
2026-03-12T18:49:30.007,580765,-0.9307458953857422,1.0516530792236327,9.35354733581543,-9.201090590165212,-2.259619778224537,-9.3838713309756,-1097.0,10424.0,-2905.0,3.5684968662296415,2.044393188185331,-2.05469626035244,-0.5776470284958074,0.4884575029172584,-0.37856201449245575,0.007075487457616927,0.018909330473023653,-0.028146511880063736,0.00375107154600483,0.00030690852792503626,-0.0014433784932939273,9.458388334391747,13.335028711887952,10876.681938900301,0,0
2026-03-12T18:49:30.017,580775,-0.4896142395019531,0.8487444885253905,9.464279162597656,-9.347930172220288,-2.2251916593812084,-9.584381136692674,-1097.0,10424.0,-2905.0,3.499759864619201,2.0360534309559455,-2.150540071719367,-0.1416241519026613,0.2749289087286474,-0.2968116169017563,0.0055743572495114595,0.021333740266905477,-0.03064790862834508,0.0038030083033814446,0.000519725684663497,-0.0017481077219978008,9.514865704670008,13.57186937010066,10876.681938900301,0,0
2026-03-12T18:49:30.027,580785,-0.017956512451171875,0.7996633544921875,10.40041201171875,-9.395217709662177,-2.388639741264858,-9.476167231123114,-1097.0,10415.0,-2909.0,3.420670893875647,1.9834639939987486,-2.245301744030598,0.34973148795966785,0.16410661663656967,0.6173180944957988,0.008935597047171517,0.022630184336772104,-0.024107606768136284,0.003888471909579307,0.0007452815005031868,-0.0019871946058894843,10.431124288894308,13.556307056780293,10869.126689849558,0,0
2026-03-12T18:49:30.037,580795,-0.44532150878906246,0.9522937103271484,10.167575900268554,-9.311892975816033,-2.3634022205002543,-9.893683608730827,-1097.0,10415.0,-2909.0,3.357899262887687,1.967886550653128,-2.3442385801179064,0.0,0.358686860674156,0.40852104630229924,0.008801563091463944,0.02582379714936096,-0.019722060360536593,0.003972511052953452,0.0010025159525247998,-0.002182230794285355,10.221779406964362,13.790648867931724,10869.126689849558,0,0
2026-03-12T18:49:30.047,580805,-0.8936357696533203,1.052850180053711,9.619902270507811,-9.088892757262945,-2.418232481884624,-9.624140139544556,-1095.0,10423.0,-2970.0,3.3116933423150727,1.99368724881221,-2.440479981513352,-0.5352685357574918,0.5186345823797748,-0.11675300110717579,0.0033971445678806908,0.030544990828561325,-0.020576246516034225,0.004002476016133627,0.0013066578949496024,-0.0023856052661862517,9.71851830705506,13.456592931164314,10893.06449076659,0,0
2026-03-12T18:49:30.057,580815,-0.5033808990478515,0.8780734588623046,9.51276174621582,-8.98129353180386,-2.375993395528976,-10.117623562527333,-1095.0,10423.0,-2970.0,3.252658165503109,1.9856223280681682,-2.5416562171386254,-0.15716831490826544,0.34422168633313066,-0.24768295745829327,0.0017980794975160658,0.033477399576514244,-0.022707279949257902,0.004016436354297679,0.0016397904588240301,-0.002610065387613152,9.566453960007944,13.735912225732497,10893.06449076659,0,0
2026-03-12T18:49:30.067,580825,-0.5333084197998047,1.0576385833740234,10.614693060302734,-9.145716878527844,-2.3468895336427558,-9.996018555573928,-1097.0,10410.0,-2972.0,3.1991347777894443,1.9756528472587231,-2.641616402694365,-0.14404365134666514,0.4707612847775431,0.8625749600133155,0.00035227833928867325,0.03761223723792533,-0.013870307393887876,0.004015939178552875,0.00201389691837208,-0.002746019693090479,10.680577044715786,13.750360528680304,10881.373672473526,0,0
2026-03-12T18:49:30.077,580835,-0.6554127044677734,0.9163806854248047,9.507374792480467,-9.29698635751391,-2.3201139807074327,-10.13780048576216,-1097.0,10410.0,-2972.0,3.1421552542626756,1.9820465619481618,-2.7429944075519863,-0.30573097340551186,0.4089704507751323,-0.24637978620459045,-0.0026644559238449485,0.0410764126194915,-0.01608909367709477,0.003985305324695112,0.0024222363835224277,-0.002904003719231565,9.573896532681477,13.949619453748312,10881.373672473526,0,0
2026-03-12T18:49:30.087,580845,-0.31543606872558594,0.6189011291503906,8.750208517456054,-9.319081107449383,-2.1735292524947405,-10.268239861535333,-1100.0,10433.0,-2972.0,3.0639167589776726,1.9617978970530805,-2.8456768061673396,0.0,0.15087751799416116,-1.0302118235396414,-0.0026244890849872744,0.04194640998244162,-0.025995343733803817,0.003955101373411394,0.0028388587828634968,-0.0031607931994130332,8.77773818361411,14.035891562444244,10903.681625946349,0,0
2026-03-12T18:49:30.097,580855,-0.2998737579345703,0.7775169891357422,9.564237081909178,-9.173554618853432,-1.9898908147341858,-10.300439209197872,-1100.0,10433.0,-2972.0,2.997312407658425,1.9396196424694518,-2.9486811982593184,0.0,0.2746987659686967,-0.21018724034448866,-0.0025851217487124654,0.04402299667749665,-0.027675757895189973,0.003925320905768344,0.0032758096608888248,-0.003434113227586568,9.600473316355767,13.93602589341852,10903.681625946349,0,0
2026-03-12T18:49:30.109,580865,0.18315642700195311,0.7308300567626953,10.46325980529785,-9.1421092737354,-1.8014312568725241,-10.134940657827896,-1090.0,10425.0,-2977.0,2.922234909992397,1.877775140813044,-3.0500306048375974,0.5363948934882716,0.16815511509760706,0.6686289450824514,0.0027371447783776973,0.045018979611045624,-0.020674626417699977,0.00394873966119857,0.0037222734575422817,-0.0036372186322718046,10.490351023763766,13.767364986948268,10896.387199434499,0,0
2026-03-12T18:49:30.117,580875,-0.36152445068359373,0.852335791015625,9.776722479248047,-9.083911263543886,-1.7256094392495516,-10.42170638081142,-1090.0,10425.0,-2977.0,2.86366168983727,1.8642571846245264,-3.1542476686457115,0.0,0.3646084664135145,0.0,0.0026960876067020317,0.04793508831105306,-0.020364507021434476,0.003971724836728325,0.00419742271631216,-0.0038370228387836634,9.820462242955898,13.932233692721784,10896.387199434499,0,0
2026-03-12T18:49:30.127,580885,-0.4878185882568359,0.7398083129882812,8.853757739257812,-9.113295923435984,-1.7582923914266606,-10.236750358151385,-1094.0,10421.0,-2927.0,2.802587757259061,1.8661150487679539,-3.2566151722272254,-0.18070736911452484,0.3167972467599378,-0.9161329300160439,0.0008756787068234316,0.05033651486697265,-0.029082948776770992,0.003976501142172763,0.004696087077116904,-0.004123724474224822,8.897994685348102,13.817916363076465,10879.402832876443,0,0
2026-03-12T18:49:30.147,580895,-0.33399113159179683,0.8020575561523438,9.56962403564453,-9.164720054439154,-1.5981168049905765,-10.56415179291391,-1094.0,10421.0,-2927.0,2.742140337735233,1.8522603798075918,-3.3622566901563644,0.0,0.34411190067711406,-0.20383136485239994,0.0008625435262210801,0.05297096936563763,-0.030654443488915564,0.0039811414508575385,0.005220570974002506,-0.004425838640204864,9.608982806881722,14.076483016093142,10879.402832876443,0,0
2026-03-12T18:49:30.147,580905,-0.296881005859375,1.0624269866943359,10.94269868774414,-9.294957084230363,-1.8897796557132813,-10.28975135679787,-1105.0,10416.0,-2990.0,2.692634925750847,1.8290643350969311,-3.4651542037243432,0.0,0.5429385755063633,1.1777590216740705,0.0008496053733277639,0.05752434979389074,-0.018593700473092233,0.003985647867086225,0.005790018657469472,-0.004607163869290849,10.998160937377385,13.994515973393137,10892.849994377046,0,0
2026-03-12T18:49:30.157,580915,-0.37828386230468747,0.8822633117675781,9.855731134033203,-9.424531249199251,-1.9873777710610967,-10.505595638497944,-1105.0,10416.0,-2990.0,2.636144124313109,1.8148923295217883,-3.5702101601093226,0.0,0.4312505284516729,0.0,0.0008368612927278474,0.06090930225223136,-0.018314794965995848,0.0039900224635334896,0.006392712568311794,-0.0047855215071318565,9.902369586019432,14.252683936426429,10892.849994377046,0,0
2026-03-12T18:49:30.167,580925,-0.11013327636718749,0.6200982299804687,9.236231454467774,-9.543739480970629,-2.077168037181087,-10.704172377662012,-1103.0,10420.0,-2929.0,2.560210168020256,1.7774333039203696,-3.6772518838859427,0.18987956273677398,0.19512753504971692,-0.5529753984912293,0.0026946220662941536,0.06191766893868761,-0.02348688071664452,0.004012951715512235,0.007004877368440971,-0.0050153699239840034,9.257679117029719,14.49057958212944,10879.892003140472,0,0
2026-03-12T18:49:30.177,580935,-0.32142157287597656,0.8415618835449218,9.897629663085937,-9.560728127371027,-1.9792872771334296,-10.608814197205147,-1103.0,10420.0,-2929.0,2.50053349155782,1.7590756447765514,-3.7833400258579943,0.0,0.40914449558845906,0.1234609523430219,0.0026542027352997413,0.06501897718615361,-0.021918487125316084,0.004035454249122368,0.007647412073162205,-0.005229320240441927,9.938541702832683,14.417768174088085,10879.892003140472,0,0
2026-03-12T18:49:30.188,580945,-0.9840168823242187,0.9756371765136718,8.914211331176757,-9.703186950352075,-1.9867979534993405,-10.408889549233614,-1096.0,10420.0,-2961.0,2.4611392927894995,1.8070515821434778,-3.8874289213503306,-0.6596215151899073,0.6381333520504073,-0.8321858898999324,-0.0038828822303503415,0.07032930604605782,-0.02978674083395068,0.003992628801392045,0.00834235442848916,-0.005521660461132652,9.021270463841262,14.368165671012312,10887.843542226348,0,0
2026-03-12T18:49:30.197,580955,-0.7793126403808593,0.9038111267089843,9.069235888671875,-9.785468579689763,-2.115658995268174,-10.659105214563217,-1096.0,10420.0,-2961.0,2.41320219609312,1.8324149923743713,-3.9940199734959627,-0.45047070173847764,0.5538629967102737,-0.6871349758145211,-0.008261775409019092,0.07472991697296315,-0.03610821923321445,0.003906101036254553,0.009080563944620573,-0.005876859910811332,9.147417250163802,14.623540347107587,10887.843542226348,0,0
2026-03-12T18:49:30.207,580965,-0.8325836273193359,0.8667010009765624,8.808866458129883,-9.544094507948728,-2.2342111536955005,-10.303937773007917,-1102.0,10417.0,-2996.0,2.3672831932822587,1.8635252668152682,-4.097059351226042,-0.5075027470980951,0.5397484723936155,-0.9471010867100933,-0.013136750836800043,0.07892549067144582,-0.044895541648810655,0.003770958794358666,0.009859949032483696,-0.0063194895119721385,8.890472113377315,14.221553117925405,10895.150710293088,0,0
2026-03-12T18:49:30.217,580975,-0.44891281127929683,0.843956085205078,9.560645779418945,-9.541542557068926,-2.045718163838885,-10.386939824338015,-1102.0,10417.0,-2996.0,2.3134594932517776,1.8555906690774555,-4.200928749469422,-0.10437460785409536,0.466236801076686,-0.21022037789763637,-0.013967789461610881,0.08233404080197948,-0.046292779246370215,0.0036276496188428144,0.010672606151062988,-0.006775634887131405,9.608315789221681,14.251825009051885,10895.150710293088,0,0
2026-03-12T18:49:30.227,580985,-0.508169302368164,1.0821791503906248,10.709264025878905,-9.456267932991217,-2.062548515609823,-9.926716345708048,-1084.0,10419.0,-3020.0,2.272166276525673,1.8479854200253885,-4.300195912926502,-0.1117437394946903,0.6670011381864602,0.9478981796184875,-0.014858948453709416,0.08766899140108642,-0.03626159048843256,0.0034755810741714144,0.011537746769008778,-0.0071311125412237145,10.775791559295937,13.864155474023999,10901.881351399858,0,0
2026-03-12T18:49:30.238,580995,-0.6051344696044921,0.9558850128173828,9.813832604980469,-9.490010400790943,-2.0682763416781103,-10.249652208783111,-1084.0,10419.0,-3020.0,2.228054637892581,1.852571494799102,-4.402692435014333,-0.24171581102761924,0.5939372662707706,0.0,-0.017016964965525825,0.0922042386028372,-0.03571766663110607,0.0033021060130916397,0.012447329365882113,-0.007480800918327241,9.87882656405153,14.120674021932459,10901.881351399858,0,0
2026-03-12T18:49:30.248,581005,-0.948103857421875,1.0396820709228516,9.305663302612304,-9.233248593117912,-2.185741063612154,-10.244314178421925,-1100.0,10428.0,-2935.0,2.1993109489871885,1.8899797150398616,-4.505135576798552,-0.5840631054864487,0.729936561053091,-0.44175426431294795,-0.022514732080084456,0.09801105015016759,-0.03953318113512202,0.0030738817335985045,0.013414012427516405,-0.007868256596948783,9.41144033794201,13.963392015040284,10888.86628625772,0,0
2026-03-12T18:49:30.258,581015,-0.4914098907470703,0.852335791015625,9.446322650146485,-8.997027730058722,-2.2938086077914743,-10.239403190489636,-1100.0,10428.0,-2935.0,2.155037575516121,1.8835243390725416,-4.607529608703448,-0.13936455933323255,0.5093581287826301,-0.3239234190905975,-0.02354975200831553,0.10155806196642399,-0.04213082909613757,0.002835545829301834,0.014415163454133465,-0.008281275323022247,9.497419206923572,13.8222083475121,10888.86628625772,0,0
2026-03-12T18:49:30.267,581025,-0.08738836059570312,0.5943605621337891,9.19313582458496,-8.93092404823939,-2.4810356264852294,-10.24951922793339,-1102.0,10421.0,-2954.0,2.0902300407003422,1.8389856641373525,-4.710024800982782,0.22870793416467666,0.2406939935345519,-0.5998912557414364,-0.02094373257666873,0.10240552687324296,-0.04740779552874866,0.0026234823950316115,0.01542377950414303,-0.008746597925031423,9.212743754856909,13.819174596881172,10887.50481056151,0,0
2026-03-12T18:49:30.277,581035,-0.38187516479492184,0.8385691314697266,9.53790086364746,-8.83596231950219,-2.5898698495371426,-10.292972323845062,-1102.0,10421.0,-2954.0,2.047209959599316,1.8201501055452944,-4.812954524221233,0.0,0.5021010430732733,-0.23757586295105781,-0.0206295765880187,0.10581513924441606,-0.04903680084588535,0.002414769442522273,0.0164654489656906,-0.009227728967556786,9.582305553180195,13.810392290179323,10887.50481056151,0,0
2026-03-12T18:49:30.287,581045,-0.6913257293701172,1.1348515869140625,10.319009155273436,-8.826646309551771,-2.768046115232708,-10.069534537937457,-1088.0,10416.0,-3017.0,2.0236991192197946,1.8227314151465706,-4.913649869600608,-0.29442455045580346,0.7979010400379771,0.5627490881546606,-0.023220214761188084,0.11208723740012388,-0.04275817031487367,0.0021803847276154814,0.017568735018352148,-0.009645655360034817,10.404218823872721,13.673598289429673,10898.581971981492,0,0
2026-03-12T18:49:30.297,581055,-0.41419688720703124,0.9379285003662109,9.964068759155273,-8.822953629177874,-2.7612365723555543,-10.273727872463438,-1088.0,10416.0,-3017.0,1.9870995594437755,1.8037407114742687,-5.016387148325243,0.0,0.5983013423738119,0.19203614221043175,-0.02287191153977026,0.11629919706150407,-0.040225241759377806,0.001949713946605561,0.018712995261978223,-0.010037859869850967,10.016682842655312,13.820941449429883,10898.581971981492,0,0
2026-03-12T18:49:30.307,581065,0.11671733093261719,0.6631938598632812,9.97125136413574,-8.75126368030706,-2.886679109981744,-10.12500037437368,-1090.0,10422.0,-2906.0,1.9281706996200823,1.738213408575324,-5.11763715206898,0.44715058684678866,0.2885840542536521,0.1731334843343344,-0.01812439958623284,0.11739726203997998,-0.03791649831229395,0.0017667014807924892,0.019867080914495645,-0.010406607828120933,9.993963317817375,13.690623246124831,10874.328485014603,0,0
2026-03-12T18:49:30.317,581075,-0.24660277099609373,0.8110358123779297,9.689334118652344,-8.646284537102009,-2.967939903134424,-10.339390588326225,-1090.0,10422.0,-2906.0,1.885853201056688,1.7046985826019505,-5.221031057952242,0.0,0.4858389008720001,0.0,-0.017852533592439348,0.12042181628296948,-0.037347750837609536,0.0015865879687232277,0.021050227778248012,-0.010769305251160531,9.726345031845357,13.801083338025164,10874.328485014603,0,0
2026-03-12T18:49:30.329,581085,-0.7104793426513671,1.0229226593017577,9.712677584838866,-8.7740939692558,-2.8866022718592803,-10.175653975406469,-1098.0,10419.0,-2995.0,1.861322535496596,1.7131068673762915,-5.322787597706307,-0.35157791891626544,0.7427277962747925,0.0,-0.02104778808987797,0.12593135783203166,-0.03678753457504539,0.0013747339777366236,0.02228723181521176,-0.011126043416314076,9.792203915885262,13.742675557708536,10896.3842626809,0,0
2026-03-12T18:49:30.348,581095,-0.4082113830566406,0.8128314636230468,9.40382557067871,-8.891678646837287,-2.811771651086148,-10.025016291520291,-1098.0,10419.0,-2995.0,1.8199219729957297,1.6968599297613385,-5.42303776062151,0.0,0.5236590565088498,-0.37379901287697237,-0.0207320712685298,0.12920042917116334,-0.03991764183325788,0.0011662458517862743,0.02355565687081647,-0.011513694614812007,9.447712256692801,13.691930492875032,10896.3842626809,0,0
2026-03-12T18:49:30.364,581105,-0.9469067565917968,0.987009634399414,9.004592443847656,-9.048637038017132,-2.6843908946090123,-10.008380841857205,-1100.0,10412.0,-2969.0,1.7973238919646788,1.734479422111401,-5.5231215690400814,-0.602228079553016,0.7656206854754802,-0.7510080122641369,-0.02635303678309906,0.13480378648552935,-0.04671630612656077,0.0009018127684713284,0.024878791040936092,-0.011968876818401537,9.107881504711992,13.756870058137846,10882.771016611532,0,0
2026-03-12T18:49:30.365,581115,-0.4752490295410156,0.881664761352539,9.654019644165038,-9.022307050585518,-2.69402986694273,-9.905271350118385,-1100.0,10412.0,-2969.0,1.7597662550823692,1.7240254255413479,-5.622174282541265,-0.12573655326514577,0.5999891265622649,-0.1201907372665314,-0.02719624628101426,0.1386916225848847,-0.04719944029673769,0.0006292204553555246,0.026239441559518156,-0.012428430350147545,9.705837917532671,13.666536575098341,10882.771016611532,0,0
2026-03-12T18:49:30.367,581125,0.04668693237304687,0.6009446166992187,9.681552963256836,-9.04686394995331,-2.8150928434409703,-9.6787033006455,-1102.0,10418.0,-2998.0,1.697535976834238,1.6662999482195113,-5.718961315547721,0.35822712947691304,0.2795763035838545,-0.11700128105654528,-0.023259765361451454,0.1393650748364124,-0.0476439113106936,0.000396226178939269,0.027605459215574397,-0.012891964593791227,9.700298030593771,13.544290037801298,10896.656918523222,0,0
2026-03-12T18:49:30.377,581135,-0.3429693878173828,0.7960720520019531,9.600748657226562,-8.918236785176559,-2.765495172063254,-9.992211914642642,-1102.0,10418.0,-2998.0,1.6553281759053888,1.6446492252171452,-5.818883434694147,0.0,0.5224987002817492,-0.1810312032246877,-0.02291086888102968,0.14242121091164142,-0.04871240999279637,0.00016695037263884322,0.029000641653366122,-0.01336570960502547,9.639799452903368,13.675789185648771,10896.656918523222,0,0
2026-03-12T18:49:30.387,581145,-0.23642741394042968,0.6308721374511719,9.047688073730468,-8.887704671630726,-2.72962141195673,-9.846493498056597,-1091.0,10426.0,-2921.0,1.6027838470550313,1.6154914031955758,-5.917348369674713,0.0,0.3735750510905945,-0.7417926033961582,-0.022567205847814235,0.14396460700120914,-0.055288380986356585,-5.866296415345984e-05,0.030409847435654835,-0.013904674821474148,9.072737021174994,13.542361743433458,10882.279081148397,0,0
2026-03-12T18:49:30.397,581155,-0.1640028137207031,0.7619546783447265,9.950302099609374,-8.996200493022219,-2.633202918512387,-10.23438377430963,-1091.0,10426.0,-2921.0,1.5558135805717412,1.579444764320357,-6.019692207417809,0.16172347492646555,0.47718705994568733,0.16140506383911024,-0.020635721532071334,0.14650543043665604,-0.052869215392746,-0.000264755159294699,0.03184302683828137,-0.014418933608426207,9.980780717371283,13.878328147171317,10882.279081148397,0,0
2026-03-12T18:49:30.407,581165,-0.5997475158691405,0.9858125335693358,9.970054263305663,-9.125284941385319,-2.6762052216167618,-10.054657462608763,-1097.0,10419.0,-2905.0,1.5272958168158932,1.5807795793567503,-6.120238782043897,-0.2452752101416015,0.7501543341003927,0.1988791710990192,-0.02274214652898504,0.15169686917099506,-0.05011721732652947,-0.0004916844479599648,0.03332663553446134,-0.01490518567590981,10.03660826411956,13.839401588944392,10871.890130055583,0,0
2026-03-12T18:49:30.417,581175,-0.3172317199707031,0.7398083129882812,9.361328491210937,-9.229408487537908,-2.4474746575459574,-10.0746751095025,-1097.0,10419.0,-2905.0,1.4812555144863995,1.5619828337875532,-6.220985533138922,0.0,0.5013063149148211,-0.4241629502871316,-0.022401014331050264,0.15435928333534113,-0.053543464126959775,-0.000714978896679197,0.03483535813944693,-0.015425179696862228,9.395872680303825,13.880604878433639,10871.890130055583,0,0
2026-03-12T18:49:30.427,581185,0.12689268798828124,0.7876923461914062,10.63683942565918,-9.32520214999829,-2.2370425386008175,-10.09309134464474,-1092.0,10424.0,-2925.0,1.430711548535136,1.5062940104034694,-6.321916446585369,0.46187740343929756,0.47388818844694997,0.8395236413987526,-0.017515506692207427,0.15671169274151348,-0.04447100429727766,-0.00088924382963767,0.03636607259179521,-0.01585401985009517,10.666719924783386,13.922436832292863,10881.53780492445,0,0
2026-03-12T18:49:30.437,581195,-0.3758896606445312,0.9301473449707031,10.152612139892577,-9.169429880437452,-2.0824693794151914,-10.192961110243893,-1092.0,10424.0,-2925.0,1.3974514225641073,1.4948599533991116,-6.4238460576878085,0.0,0.690339299990956,0.37197066536779566,-0.017252774091824314,0.16116085945530167,-0.040140028178945714,-0.0010607097989853574,0.03793970350516188,-0.01623916471175274,10.202058634581045,13.86764505038276,10881.53780492445,0,0
2026-03-12T18:49:30.449,581205,-0.7026981872558593,1.1282675323486326,10.244190353393554,-8.928558416831724,-2.2573352436961223,-10.172646172643894,-1099.0,10409.0,-2921.0,1.382819421825499,1.5087103014063579,-6.525572519414247,-0.329207226102588,0.9241224340922494,0.4767263274799767,-0.020236673657557443,0.1678460525392808,-0.03484217343058376,-0.001261813459025371,0.03957854586652413,-0.016570998859612517,10.330063328145007,13.722151724821282,10866.799114734753,0,0
2026-03-12T18:49:30.457,581215,-0.49320554199218747,0.8577227447509765,9.411008175659179,-8.94110301177787,-2.2230898876150667,-10.397858869076286,-1099.0,10409.0,-2921.0,1.3521208337771722,1.5089963994027227,-6.62955110810501,-0.16974708986105197,0.6594210513966058,-0.36830455716429356,-0.02160513238782544,0.17182365910744815,-0.037947340717193294,-0.0014763869181207217,0.04125548567514101,-0.016933521794517667,9.46287561451797,13.892477128894905,10866.799114734753,0,0
2026-03-12T18:49:30.467,581225,-0.16519991455078123,0.6171054779052734,8.99501563720703,-9.020936722055152,-2.376950013679032,-9.956274061989209,-1107.0,10442.0,-2983.0,1.3018524364366035,1.4786938903478082,-6.729113848724902,0.11515634259199613,0.4018573347444129,-0.798672080649828,-0.020146765427476898,0.1732045989680689,-0.0452450506008362,-0.0016761767178230952,0.04294454413315687,-0.0173685863282255,9.01767245447667,13.64384784099746,10916.002106998698,0,0
2026-03-12T18:49:30.477,581235,-0.4836287353515625,0.8900444671630859,9.520542901611327,-9.148042272095617,-2.2404525491700755,-10.310991649225194,-1107.0,10442.0,-2983.0,1.2723295149832514,1.4778765200900672,-6.832223765217154,-0.1550812824374892,0.7018589074332837,-0.25939086878850226,-0.021372114578074013,0.1775198402217657,-0.04712137489939041,-0.0018880079657402314,0.04467502279283916,-0.017821960277142185,9.574278722107854,13.965058318085275,10916.002106998698,0,0
2026-03-12T18:49:30.487,581245,-0.46028526916503903,1.0917559570312498,10.762535012817382,-9.157662304962116,-2.2465821988950063,-9.973917195335959,-1086.0,10409.0,-2976.0,1.2499260037958775,1.4701256722745422,-6.931962937170513,0.0,0.8726069426443401,0.9853985794761453,-0.021051532859402904,0.18345222100348596,-0.03670837826805952,-0.0020964247710399263,0.046463035457871144,-0.018170855015762957,10.827555287360282,13.725484861655499,10880.406839819916,0,0
2026-03-12T18:49:30.497,581255,-0.5231330627441406,0.9852139831542969,9.984419473266602,-9.225049320565146,-2.2814897693248692,-10.093076990440789,-1086.0,10409.0,-2976.0,1.2248417675134655,1.4703730655872558,-7.032893707074921,-0.16980541801789678,0.7983606626283033,0.20667778772689616,-0.022408343233988142,0.18856429021532245,-0.0341219763849287,-0.002318187695176428,0.048300329681664346,-0.01849356270483263,10.046539056415606,13.862789534194004,10880.406839819916,0,0
2026-03-12T18:49:30.508,581265,-0.9834183319091796,1.025316860961914,9.14225903930664,-9.287045374919934,-2.313604734120343,-9.90026497754699,-1105.0,10409.0,-2962.0,1.2109776514782375,1.5170531628157362,-7.13189635685039,-0.6315074816714563,0.9173774769000486,-0.6219396894806035,-0.028292566779942165,0.1947719940095581,-0.039736252680538715,-0.0025985122496128736,0.05019780157213816,-0.01887203430640638,9.251988252407793,13.770157053832367,10878.499436962802,0,0
2026-03-12T18:49:30.518,581275,-0.5835866546630859,0.9313444458007812,9.6779616607666,-9.29530125712146,-2.3236383066102277,-9.722877925684696,-1105.0,10409.0,-2962.0,1.1837069958346444,1.5229339203238528,-7.229125136107237,-0.23110837908452092,0.7663915130218156,0.0,-0.030144595812225564,0.1993993705026796,-0.03914020889033063,-0.002897058249527394,0.05213960348188779,-0.019244172958914375,9.740170315117341,13.650504591345953,10878.499436962802,0,0
2026-03-12T18:49:30.527,581285,-0.6123170745849609,0.7104793426513671,8.556278182983398,-9.112652766307841,-2.5133569981789705,-9.720657447727481,-1101.0,10421.0,-2993.0,1.1473926261246892,1.5365230816150242,-7.326331710584512,-0.31047672610887866,0.5833568898865578,-1.224522735601802,-0.032750622627214634,0.202154445310522,-0.05061465470265342,-0.003221339911323741,0.05410698678705802,-0.019730569186434968,8.607532134169485,13.559077588672944,10898.04987142195,0,0
2026-03-12T18:49:30.537,581295,-0.33099837951660155,0.7924807495117187,9.50677624206543,-9.281201520612969,-2.3854591700319703,-9.918614608006843,-1101.0,10421.0,-2993.0,1.1102389176089131,1.5197861718801413,-7.42551785666458,0.0,0.6131575163958396,-0.28087353356853306,-0.03225936328780642,0.2051617301673632,-0.05262203918776367,-0.003540389610657603,0.05610244548464292,-0.02023653278873429,9.545490044114496,13.79166534035266,10898.04987142195,0,0
2026-03-12T18:49:30.548,581305,0.025139117431640625,0.8409633331298828,10.817003100585938,-9.31919320384198,-2.360476094965998,-9.676344951561417,-1096.0,10408.0,-2980.0,1.0684736912844555,1.4717473395218088,-7.5222813061801945,0.3843659463344544,0.5939022679086873,1.0199353479502626,-0.027989468267094947,0.2079342415537533,-0.04178634542263712,-0.003816464009035224,0.05812360611228027,-0.020633741846717703,10.849673146274037,13.640046223787095,10881.547684038333,0,0
2026-03-12T18:49:30.558,581315,-0.29448680419921874,0.843956085205078,9.938929641723632,-9.280974820705353,-2.2448087390760354,-10.01931052616821,-1096.0,10408.0,-2980.0,1.033832701512387,1.452925873607226,-7.6224744114418765,0.0,0.6641971079150637,0.15015617226693578,-0.02756962624308852,0.2113575694434104,-0.03968051194446825,-0.004088068111194643,0.06017694462490766,-0.021009516419196225,9.979043379740103,13.840601262856467,10881.547684038333,0,0
2026-03-12T18:49:30.567,581325,-0.7864952453613281,0.8744821563720703,8.792705596923827,-9.406789517975753,-2.2701020887304404,-9.632399830416217,-1094.0,10414.0,-2921.0,1.01086380136402,1.48506842000347,-7.7187984097460385,-0.45633521126875526,0.7876530260889224,-0.982460155463901,-0.031650983680439435,0.2159455882087351,-0.04876253679662065,-0.004400173370051039,0.062274064106488024,-0.02147564464537527,8.871018291434458,13.653723998300213,10871.084260551015,0,0
2026-03-12T18:49:30.585,581335,-0.4842272857666015,0.7625532287597656,8.975862023925782,-9.429856112635253,-2.3177622143149317,-9.856929795202431,-1094.0,10414.0,-2921.0,0.9756561513063936,1.4861162472083382,-7.817367707698063,-0.16572659041491145,0.6380766968775387,-0.8095696185841952,-0.03280862584081972,0.21899145984984783,-0.056005359487725656,-0.004723531368830777,0.06439951472628151,-0.02201366254201227,9.021200727371378,13.836664084043521,10871.084260551015,0,0
2026-03-12T18:49:30.587,581345,-0.15322890625,0.613514175415039,9.098564859008789,-9.407174940697603,-2.3957558713160787,-9.741546143293554,-1095.0,10421.0,-2954.0,0.9262246659811628,1.4546659276519471,-7.914783169130998,0.14149213998819346,0.45117040251304596,-0.6984017338978319,-0.03092279887432372,0.2201506164168536,-0.06204453617430341,-0.0050277265982164405,0.06653441986955959,-0.02261147379585155,9.120513211148559,13.752538231968378,10886.798519307686,0,0
2026-03-12T18:49:30.598,581355,-0.31184476623535157,0.8415618835449218,9.810241302490233,-9.386308262514964,-2.4675100357571336,-9.635393183537388,-1095.0,10421.0,-2954.0,0.8934220365861155,1.4357513946444744,-8.011137100966373,0.0,0.6909225009915778,0.0,-0.030458956891208862,0.22365394380536785,-0.061113868131688856,-0.005326983850961401,0.06870218834830565,-0.02319938986469127,9.851208452527503,13.67597127727598,10886.798519307686,0,0
2026-03-12T18:49:30.607,581365,-0.9510966094970703,1.0223241088867188,9.096769207763671,-9.274427991757669,-2.3384019158233924,-9.732854411781226,-1100.0,10433.0,-2926.0,0.8848502694231976,1.4801573730943742,-8.108465645084186,-0.5839063226780706,0.9738152978831485,-0.67365057289663,-0.035753549816219726,0.22989121533243634,-0.06683261825274532,-0.005678834829774475,0.07093009940112838,-0.023843848331171504,9.203311434669867,13.645936871287144,10891.233401226878,0,0
2026-03-12T18:49:30.618,581375,-0.479438882446289,0.8595183959960937,9.4481183013916,-9.07881521583169,-2.3659639088989843,-9.690811424692386,-1100.0,10433.0,-2926.0,0.860121618948327,1.478045579434695,-8.20537375933111,-0.13044567622670408,0.743824233344958,-0.33747461945125323,-0.03650213647980947,0.23376951580089764,-0.06915425398054899,-0.006037812338377997,0.07319452676457822,-0.024510855480106016,9.499240651344083,13.488309642441415,10891.233401226878,0,0
2026-03-12T18:49:30.627,581385,0.1580173095703125,0.6853402252197265,10.18373676147461,-9.011046583931009,-2.3425404547236512,-9.154570900960897,-1084.0,10418.0,-2976.0,0.8162118648726667,1.419496466977657,-8.296919468340718,0.48411693620224894,0.4753176745007478,0.3787738508678071,-0.031186052611020174,0.23494485215771652,-0.06438601773979286,-0.0063433231916237105,0.07546843131086922,-0.02512956094184644,10.207994666996914,13.05728243933291,10888.817934009183,0,0
2026-03-12T18:49:30.637,581395,-0.2950853546142578,0.7984662536621093,9.764152920532226,-8.92918724746043,-2.2917225841994178,-9.285619863030366,-1084.0,10418.0,-2976.0,0.7861408265896932,1.401509607582095,-8.389775666971023,0.0,0.6654746962784865,0.0,-0.030718261821854873,0.23797560513369387,-0.06342022747369597,-0.006643855304032417,0.07777033917484397,-0.025737999453366817,9.801189008497031,13.084537192573672,10888.817934009183,0,0
2026-03-12T18:49:30.647,581405,-0.9349357482910156,1.0570400329589844,9.421183532714844,-8.902657145712375,-2.36204331404883,-9.167160517890377,-1103.0,10408.0,-2864.0,0.7826832153120075,1.4417042932392834,-8.481447272149927,-0.5527311722421182,1.0209354211241415,-0.35137016495896134,-0.03570188994111192,0.24446218495476124,-0.0659299201864363,-0.006993873329240093,0.08013474606336718,-0.02637090135657595,9.526286665947428,12.995129273397573,10851.063035481824,0,0
2026-03-12T18:49:30.657,581415,-0.6524199523925781,0.8936357696533203,9.287108239746093,-8.829468964299288,-2.4413725318517527,-9.60451938377622,-1103.0,10408.0,-2864.0,0.7664166704415516,1.4560314436875599,-8.577492465987689,-0.29654745663420556,0.8227622720799839,-0.49484362371353896,-0.03808735403984217,0.24889946056042767,-0.06981518107721812,-0.007367372122768876,0.08254111692830249,-0.027041984114180784,9.352786544118475,13.272777200877655,10851.063035481824,0,0
2026-03-12T18:49:30.668,581425,-0.32620997619628905,0.6021417175292968,8.69514187927246,-8.976769983740711,-2.3777700463767832,-9.523962711122902,-1102.0,10430.0,-2937.0,0.72592067138608,1.4429208222627095,-8.672732093098919,0.0,0.5024380104084479,-1.0991222905461058,-0.03751604372924453,0.25011498305454444,-0.07959430792293899,-0.007734790027501261,0.08495722449208909,-0.027810089266216764,8.722068556095907,13.30195682812474,10891.522988085735,0,0
2026-03-12T18:49:30.677,581435,-0.26216508178710934,0.785896694946289,9.727641345214844,-9.009847897236575,-2.2704752719349335,-9.688874962525752,-1102.0,10430.0,-2937.0,0.6955683215685217,1.4219943287588652,-8.769620842724176,0.0,0.6630622339096,0.0,-0.03695330307330586,0.2528944213127358,-0.0784003933040949,-0.008096218735176085,0.08739868253651123,-0.028565499106058455,9.762856666282119,13.424109472559612,10891.522988085735,0,0
2026-03-12T18:49:30.687,581445,-0.5404910247802734,1.0821791503906248,10.650606085205078,-9.04027957765277,-2.171764079448432,-9.840594233816374,-1098.0,10412.0,-2965.0,0.683114402674764,1.4226265318655382,-8.86802678506234,-0.12506539680934725,0.9861912228366662,0.8662332918821196,-0.03763089768577834,0.25881498853798596,-0.0686919894794946,-0.008464055184321834,0.0898968455894692,-0.02922316658185255,10.719078889700162,13.538113196953566,10881.478438153521,0,0
2026-03-12T18:49:30.704,581455,-0.41958384094238277,0.8864531646728515,9.862315188598632,-8.931691357782013,-2.256559538458411,-10.111883280476919,-1098.0,10412.0,-2965.0,0.6619321345718673,1.415455445819151,-8.96914561786711,0.0,0.7903897262725615,0.0,-0.03706643422049166,0.26271810251370087,-0.06766160963730218,-0.008825884807000224,0.0924315025879916,-0.02986988289554735,9.910959120690679,13.679084579725142,10881.478438153521,0,0
2026-03-12T18:49:30.713,581465,0.07302315063476562,0.7332242584228515,10.301052642822265,-9.070814585744818,-2.38335184855247,-10.098054569258277,-1095.0,10420.0,-2910.0,0.6237269422953545,1.3646706127995447,-9.070126163559692,0.41242618100929784,0.5630692074236463,0.49711113158361897,-0.03244803982424271,0.2643235626691183,-0.061750140846644,-0.00914121484003741,0.09497966347646809,-0.030456896919709774,10.327373128916372,13.781536538669314,10873.983860572904,0,0
2026-03-12T18:49:30.717,581475,-0.29867665710449215,0.8421604339599609,9.861716638183593,-9.164661614007183,-2.2463422372536384,-10.358502886644445,-1095.0,10420.0,-2910.0,0.5973147522530705,1.348001129203293,-9.173711192426136,0.0,0.7404376877687312,0.0,-0.031961319226879066,0.2676520204536035,-0.06082388873394434,-0.009451367204273893,0.09755852749732312,-0.031034070671242166,9.902115783702685,14.011982657666534,10873.983860572904,0,0
2026-03-12T18:49:30.727,581485,-0.7314286071777343,0.7577648254394531,8.403647827148436,-9.129049660496365,-2.271512907053835,-10.163968997176305,-1098.0,10413.0,-2974.0,0.5757210897836327,1.379721501151493,-9.2753508823979,-0.41326499692846386,0.7496981532646844,-1.380639267624142,-0.03555255965822125,0.2710217669564565,-0.07351082718903298,-0.00979708590805525,0.1001684764217208,-0.031737409764189366,8.46938558224904,13.84938931383915,10884.890858433078,0,0
2026-03-12T18:49:30.737,581495,-0.47704468078613277,0.9133879333496093,9.65940659790039,-9.23287202912007,-2.1678406549773332,-10.155729526182688,-1098.0,10413.0,-2974.0,0.5571683962486976,1.379894557068734,-9.376908177659727,-0.10732430692919007,0.8482344295619256,-0.1301338493668336,-0.03607641568660046,0.2753115495832947,-0.0736899831974608,-0.010147692214856332,0.1028186703256362,-0.032441835286567806,9.71421561258636,13.89547772552132,10884.890858433078,0,0
2026-03-12T18:49:30.747,581505,-0.7110778930664062,1.0785878479003905,9.991003527832031,-9.157656900936807,-2.1553890123352444,-9.953027261649048,-1096.0,10412.0,-2921.0,0.5510312780856879,1.398678679785026,-9.476438450276218,-0.29862987322837364,1.0458927816568249,0.20864148337141764,-0.038476773702600935,0.281483920238865,-0.07052951483829042,-0.010521927491930459,0.10552787601849682,-0.03311398330451576,10.074181604914529,13.695661115145196,10869.369852939957,0,0
2026-03-12T18:49:30.758,581515,-0.4896142395019531,0.8768763580322265,9.585784896850585,-8.98601995861796,-1.953689598665498,-10.161663129497612,-1096.0,10412.0,-2921.0,0.5326537812146812,1.402132039773798,-9.578055081571193,-0.12009886739453904,0.8191270473944676,-0.20401944989733067,-0.039082595940898135,0.28533006285211754,-0.07148116369720477,-0.010901840697888101,0.10827279547037097,-0.03379496614654632,9.638252245064336,13.704920842602677,10869.369852939957,0,0
2026-03-12T18:49:30.768,581525,-0.6661866119384765,1.064222637939453,10.072406384277343,-8.82811397168462,-1.7681261380893314,-10.031656908406095,-1104.0,10410.0,-2978.0,0.5281771026894837,1.420131003507335,-9.678371650655254,-0.24690125102480173,1.027459158206772,0.28855243707471523,-0.04092833432437896,0.2911705846176725,-0.06756670473656075,-0.011299812917090759,0.11107331681523115,-0.03443616256071802,10.150356880182088,13.479466112024602,10883.721789902569,0,0
2026-03-12T18:49:30.777,581535,-0.729034405517578,0.9277531433105468,9.269151727294922,-8.853572171023021,-1.70472482752999,-9.9120511850019,-1104.0,10410.0,-2978.0,0.5187825840815228,1.4491607599866128,-9.777492162505274,-0.3437097807379478,0.91545595605492,-0.5140080300264405,-0.043699950649782056,0.29582026701554837,-0.07161618326127277,-0.01172507561116499,0.11391748796590125,-0.03511717206893742,9.343949422110835,13.399275563223856,10883.721789902569,0,0
2026-03-12T18:49:30.787,581545,-0.4465186096191406,0.8128314636230468,9.30147344970703,-8.813579080268008,-1.7439565974251519,-9.787379773128578,-1096.0,10407.0,-2941.0,0.49910071136069234,1.451314836181151,-9.875365960236559,0.0,0.7570571494063588,-0.49012580262679784,-0.04304445139003533,0.29883997593196776,-0.07536967966822763,-0.012143364604940277,0.1167889818374957,-0.035834997996754075,9.347592320624418,13.285833193341206,10869.974516989449,0,0
2026-03-12T18:49:30.797,581555,-0.037708676147460936,0.8762778076171874,10.709264025878905,-8.752395192870956,-1.8483425086555298,-10.014145488839267,-1096.0,10407.0,-2941.0,0.47556958122385223,1.4143550331932249,-9.975507415124952,0.3597692964763227,0.7361666458858291,0.9071843014609584,-0.03885505704889302,0.3016086177549636,-0.06530336910381378,-0.012519383260253777,0.1196852629470303,-0.036451543656104424,10.745120786494828,13.427728829296989,10869.974516989449,0,0
2026-03-12T18:49:30.819,581565,-0.40282442932128903,0.7870937957763672,9.464279162597656,-8.813179187197377,-1.9834019372313803,-9.842282142415053,-1101.0,10419.0,-2970.0,0.45293690294496214,1.410035382232855,-10.073930236549103,0.0,0.7309495418753885,-0.32939967224240796,-0.038272231193159624,0.3042843414761117,-0.0675684053388443,-0.012889203466613187,0.12260537825542962,-0.03709010048178337,9.505491267251148,13.359510784499726,10889.842147616282,0,0
2026-03-12T18:49:30.819,581575,-0.2328361114501953,0.9235632904052734,10.479420666503906,-8.9032468034411,-2.073510270057748,-10.020753229558434,-1101.0,10419.0,-2970.0,0.4339938113107138,1.3874792625480534,-10.174137768844687,0.16992035867783295,0.8271516989955064,0.6820289659272287,-0.03602443219228557,0.30786752058907574,-0.059836893944378425,-0.013236198340747508,0.12555836940785906,-0.03765078095180593,10.522615611706465,13.564023878286447,10889.842147616282,0,0
2026-03-12T18:49:30.827,581585,-0.6602011077880859,1.0271125122070313,10.08018753967285,-8.99098705916581,-2.029580667965323,-9.61909297119376,-1094.0,10415.0,-2890.0,0.42619309004269756,1.4025954466846158,-10.270328698556625,-0.23671393098550325,1.0104986625778483,0.29403638352060035,-0.0378156979296085,0.3132029196066314,-0.05604308215753483,-0.01360074096472355,0.12856170820532145,-0.0381730005616079,10.153866576355663,13.322311945542141,10863.754461510993,0,0
2026-03-12T18:49:30.837,581595,-0.40761283264160153,0.7715314849853515,9.361328491210937,-8.925366631017912,-1.8672142145280974,-9.878833826181186,-1094.0,10415.0,-2890.0,0.4025576967828672,1.4004363840180225,-10.369117036818437,0.0,0.7263565643782053,-0.4329676335495307,-0.03724846246066437,0.3156594879716572,-0.05946716711563469,-0.013959252363740862,0.13158658478195298,-0.03872890456053148,9.401908326186522,13.443958352595615,10863.754461510993,0,0
2026-03-12T18:49:30.847,581605,-0.5793968017578125,0.9846154327392578,10.00955859069824,-9.001581202975503,-1.8544224432195082,-9.834868583501326,-1097.0,10409.0,-2882.0,0.3921233063187233,1.4106181040922028,-10.46746572265345,-0.16068297709172166,0.9612788768452598,0.22064052569538894,-0.03827246284810786,0.32039319258900817,-0.056401850430800586,-0.014327635015229719,0.13465572619113522,-0.039253630141774645,10.074543730854339,13.46075728948485,10856.178609437116,0,0
2026-03-12T18:49:30.865,581615,-0.6093243225097655,0.8637082489013671,9.284115487670897,-9.071698609176487,-1.842654013615606,-9.794420560235855,-1097.0,10409.0,-2882.0,0.3766097980095534,1.427391987807217,-10.565409928255809,-0.2241515624284888,0.8583164542436866,-0.5047621594018192,-0.03990626879530686,0.32404171177447333,-0.060527729944446496,-0.014711971005479604,0.13775824716557106,-0.03981904853377789,9.344092703822714,13.476711897951931,10856.178609437116,0,0
2026-03-12T18:49:30.875,581625,-0.5345055206298828,0.7308300567626953,8.788515744018554,-8.877670037515538,-1.7440221803312357,-9.654769354441378,-1100.0,10429.0,-2982.0,0.354820057509754,1.4408288162463763,-10.661957621800223,-0.18269382733399384,0.7226682543655408,-1.003117114510225,-0.041107208962617096,0.32629936840335677,-0.06950051757320552,-0.015107920052010669,0.14088021960875502,-0.04047353965580044,8.835033543021417,13.23137218688783,10902.585243876794,0,0
2026-03-12T18:49:30.877,581635,-0.35134909362792965,0.8224082702636718,9.652223992919922,-8.913797897928928,-1.6581589424901029,-9.67263170852509,-1100.0,10429.0,-2982.0,0.3347478712486621,1.4340411384813403,-10.758683938885474,0.0,0.7729900504118228,-0.14401753602755996,-0.04049060082817784,0.32901882987386283,-0.06987658253947891,-0.015497313234232155,0.14402623749958615,-0.041131133175714034,9.69356640035494,13.257642634060065,10902.585243876794,0,0
2026-03-12T18:49:30.887,581645,-0.4112041351318359,1.0869675537109373,10.73141039123535,-8.922645285606809,-1.793798910017724,-9.406138245013816,-1096.0,10410.0,-2962.0,0.3285937017501849,1.4276098344692056,-10.852745321335611,0.0,1.0340959266904004,0.9377294776727947,-0.03988324181575517,0.3342693923036553,-0.0595917984463097,-0.015880249506737314,0.14722156249120008,-0.04168532410901695,10.7941538014188,13.0884204588122,10878.545858707403,0,0
2026-03-12T18:49:30.897,581655,-0.36212300109863277,0.8283937744140625,9.665392102050781,-8.960053174953385,-1.7624901191675255,-9.692671575656613,-1096.0,10410.0,-2962.0,0.3088886210464127,1.4209022565383922,-10.949672037092178,0.0,0.7853598443041759,-0.13092622446568747,-0.039284993188518844,0.3369911458854966,-0.05998754478060207,-0.01625682633918388,0.150440882476105,-0.04224291435726615,9.707583314079683,13.316786646623767,10878.545858707403,0,0
2026-03-12T18:49:30.908,581665,-0.9020154754638672,0.8702923034667969,8.564657888793946,-8.862761116079065,-1.782466519390221,-9.424574922774816,-1092.0,10409.0,-2899.0,0.30398948158146877,1.4717547616292197,-11.043917786319925,-0.5109958588594483,0.9401372774227587,-1.2171546425672464,-0.043729027500456624,0.3411966308798283,-0.07107670483818042,-0.01667742249757426,0.15369899593611835,-0.04291072772424231,8.655888479152802,13.059415529357585,10860.200090237748,0,0
2026-03-12T18:49:30.917,581675,-0.41958384094238277,0.8553285430908203,9.616310968017578,-8.880569495085423,-1.703283831985345,-9.597438197245513,-1092.0,10409.0,-2899.0,0.2881985045055721,1.4702295283473839,-11.13989216829238,0.0,0.8250922460208181,-0.17856005131290864,-0.04307309208794977,0.344205840039936,-0.07176937077103987,-0.017091045265035305,0.1569839132821812,-0.04358479301052075,9.663388336904452,13.186224263195726,10860.200090237748,0,0
2026-03-12T18:49:30.926,581685,-0.32620997619628905,0.6727706665039062,9.054870678710937,-9.043294667185906,-1.8694601498167611,-9.380862653660994,-1108.0,10417.0,-2930.0,0.25853751508937023,1.4606255105008572,-11.23370079482899,0.0,0.638348598809694,-0.7434637532010662,-0.04242699570663053,0.34533048613761247,-0.07801594817850478,-0.01749779990687951,0.16027678092541378,-0.04432058753981349,9.085687443801772,13.163458657061128,10877.796330139667,0,0
2026-03-12T18:49:30.937,581695,-0.4447229583740234,0.852335791015625,9.712079034423828,-9.193001825518351,-2.0223423622216643,-9.606003397465676,-1108.0,10417.0,-2930.0,0.2393401320422129,1.4579724305672708,-11.329760828803648,0.0,0.8347158205562138,0.0,-0.04179059077103107,0.348372479678027,-0.07684570895582721,-0.01789779010877523,0.16359674521647186,-0.04504395558474238,9.75954578765047,13.449031655332742,10877.796330139667,0,0
2026-03-12T18:49:30.947,581705,0.05746083984375,0.6775590698242188,10.019135397338866,-9.057561679476883,-2.0361647293414924,-9.813132881765982,-1102.0,10420.0,-2945.0,0.20456538422524334,1.4111289439573544,-11.427892157621308,0.42536407219084416,0.5687799605784573,0.21038633386436523,-0.03697389579838579,0.3487493750945544,-0.0736207179329258,-0.018249261537692327,0.16691715472844998,-0.04573438260130757,10.042184132519441,13.50862566428351,10884.109012684501,0,0
2026-03-12T18:49:30.962,581715,-0.28431144714355466,0.7499836700439453,9.513958847045897,-9.06954211097239,-1.9318081363600268,-9.774423714639338,-1102.0,10420.0,-2945.0,0.1797713405432418,1.3965297720064922,-11.525636394767702,0.0,0.7160577959618804,-0.28628234162915334,-0.03641928736141,0.3505713037583606,-0.07533628822897906,-0.01859484095689512,0.17025244489826755,-0.046441257738113764,9.547707654070287,13.473226626599592,10884.109012684501,0,0
2026-03-12T18:49:30.967,581725,0.14544775085449219,0.7038952880859375,10.319009155273436,-9.16349093721655,-1.8894586074024442,-9.792469817468191,-1090.0,10418.0,-2964.0,0.1453488565857375,1.344885670259257,-11.623561092942383,0.516238474721128,0.585715084982283,0.5078547989652424,-0.03078804907498574,0.3510820277890607,-0.06920387413573674,-0.01888381872619733,0.173589501910982,-0.047086163182991664,10.344011483531677,13.543710167880976,10886.143486101953,0,0
2026-03-12T18:49:30.978,581735,-0.4537012145996093,0.8415618835449218,9.500790737915038,-9.284070198824592,-1.8846433822248827,-10.08712101255854,-1090.0,10418.0,-2964.0,0.12764962371049868,1.3469993699938487,-11.72443230306797,0.0,0.8500528703240899,-0.2959685163244643,-0.030326228338860953,0.3541888181449171,-0.07108110590949666,-0.019167893928576357,0.17695425870233875,-0.04774917726784454,9.548774572771995,13.838202573198117,10886.143486101953,0,0
2026-03-12T18:49:30.987,581745,-0.7613561279296874,1.0911574066162109,10.070012182617187,-9.273051899991795,-2.0265548384761605,-9.826492794968493,-1088.0,10424.0,-2973.0,0.12715946713622933,1.3713122295282325,-11.822697231017655,-0.29007490460191365,1.15269031625801,0.2810947718572496,-0.03272857272410689,0.3602299854878847,-0.0672461058180603,-0.01947568447616161,0.18037600199866036,-0.048373216687699123,10.157530851422903,13.66222444197358,10894.13828625284,0,0
2026-03-12T18:49:30.997,581755,-0.6039373687744141,0.8678981018066406,9.34037922668457,-9.175110187016841,-2.0693085001785554,-10.045251420151502,-1088.0,10424.0,-2973.0,0.11450653707773387,1.3856153592020064,-11.92314974521917,-0.1942553031097823,0.9089730937624367,-0.45268269458182964,-0.03415105886887664,0.36377992067912646,-0.07069633877242042,-0.019797377869785526,0.1838297874042462,-0.0490310998953479,9.40003572114502,13.761241248770665,10894.13828625284,0,0
2026-03-12T18:49:31.007,581765,-0.8702923034667969,0.8403647827148437,8.532934716796875,-8.919150152543299,-2.181812600652076,-9.75870447727109,-1087.0,10417.0,-2925.0,0.1093047306407051,1.4302762983782058,-12.020736789991881,-0.4709607426405461,0.9428441297400549,-1.2530637656463384,-0.03827775630085287,0.3676102365468791,-0.08197857178245053,-0.020159975277361263,0.18731838387994526,-0.049801034727559236,8.618271087788912,13.399397700743423,10874.33138174481,0,0
2026-03-12T18:49:31.017,581775,-0.42497079467773435,0.8056488586425781,9.300874899291992,-8.81537423790081,-2.065804177965764,-9.753617875186963,-1087.0,10417.0,-2925.0,0.09509342627890796,1.4275694365326619,-12.118272968743751,0.0,0.8131380776414527,-0.4967506316863428,-0.03770358995634008,0.3701054930634442,-0.08564188692782425,-0.02051647416574774,0.19082841937176911,-0.050606796143240644,9.345370198769064,13.308321889371054,10874.33138174481,0,0
2026-03-12T18:49:31.027,581785,0.14305354919433594,0.6548141540527344,10.109516510009765,-8.719900396429722,-1.9590764290943565,-9.748938201269567,-1097.0,10405.0,-2956.0,0.06336583216526552,1.3747238697417827,-12.215762350756448,0.5130271541984259,0.5474760139484746,0.2972424733812904,-0.03208471863814048,0.369946549404885,-0.08142942026110117,-0.020816484030777016,0.19433335698095214,-0.051369669255505804,10.131711107233809,13.225597885572562,10872.229302217645,0,0
2026-03-12T18:49:31.037,581795,-0.2705447875976562,0.8349778289794921,9.885060104370117,-8.807674218373881,-1.9730820220838812,-9.608047535411904,-1097.0,10405.0,-2956.0,0.048083303827618495,1.3581008508423362,-12.311842826110567,0.14094170542655163,0.8153810709258458,0.0,-0.030215172060116844,0.3724288547124313,-0.08020797895718465,-0.021097517115626806,0.19785958788254837,-0.052119577296032574,9.923950610719166,13.182668745197738,10872.229302217645,0,0
2026-03-12T18:49:31.047,581805,-0.7404068634033203,1.034893667602539,9.698910925292969,-8.698182232123484,-2.029869606658634,-9.502818366725293,-1076.0,10421.0,-2989.0,0.05304294816220315,1.3828486108721367,-12.40687100977782,-0.2738656794951655,1.1106934956102437,0.0,-0.03245952142224247,0.3777827528235057,-0.07900485927282688,-0.02140069021751938,0.20143577799537263,-0.05285671626287208,9.78202843807898,13.041560553639151,10894.454460871366,0,0
