recv_time,timestamp,ax,ay,az,gx,gy,gz,mx,my,mz,roll,pitch,yaw,ax_w,ay_w,az_w,vx,vy,vz,x,y,z,a_norm,g_norm,m_norm,stationary,bias_ready
2026-03-12T18:40:55.216,65719,-0.27892449340820313,0.7493851196289062,9.536105212402344,-133.0,-49.0,-229.0,-1106.0,10415.0,-2857.0,4.493296320239075,1.6702379633684223,0.0,0.0,0.0,-0.2370795001002577,0.0,0.0,-0.0023352330759875382,0.0,0.0,-2.3328978429115507e-05,9.569570499899744,269.315799759316,10856.238298784712,0,0
2026-03-12T18:40:55.218,65729,-0.7140706451416016,0.8924386688232422,9.111732968139648,-133.0,-49.0,-217.88,-1106.0,10415.0,-2857.0,3.1997558273827567,1.2294307706778276,-2.1788,-0.5027267509760376,0.4018587050719983,-0.6460934262126923,-0.00495185849711397,0.003958308244959183,-0.008664224828042744,-4.946906638616856e-05,3.954349936714224e-05,-0.00010986125548283341,9.183137881277124,259.92632494612775,10856.238298784712,0,0
2026-03-12T18:40:55.218,65739,-0.36750995483398435,0.7841010437011718,9.507973342895507,-135.07999999999998,-50.92,-207.6496,-1121.0,10402.0,-2870.0,1.8919372677355548,0.7425182072347329,-4.2552959999999995,-0.20846669673428558,0.48658201076490243,-0.2740105603694616,-0.006930977582489973,0.008691766427319083,-0.0112332654752613,-0.00011866006336885723,0.00012633470247669276,-0.00022197171632521096,9.547326070835064,252.89881213671208,10848.739327682271,0,0
2026-03-12T18:40:55.218,65749,-0.28730419921875,0.8379705810546875,10.008960040283203,-138.19359999999998,-52.9264,-209.357632,-1121.0,10402.0,-2870.0,0.5741376306461592,0.2346325567712741,-6.34887232,-0.16320215762776236,0.760344922538654,0.2112969024397966,-0.008434554171386085,0.01605078741791504,-0.008983492004100384,-0.00020280259947763534,0.00028655573407918727,-0.00031149482972984857,10.048085364167035,256.37724738082244,10848.739327682271,0,0
2026-03-12T18:40:55.218,65759,-0.04189852905273437,0.6117185241699218,9.337386474609374,-140.01811199999997,-53.572288,-203.24902143999998,-1096.0,10397.0,-2868.0,-0.7574290595347143,-0.29272579665367815,-8.3813625344,0.0,0.7403012615538742,-0.4785016720667432,-0.008308035858815293,0.023101993032951976,-0.0135619810938963,-0.00028559707510772246,0.0005170580887442983,-0.0004466675260281428,9.357496525020327,252.5573725827798,10840.860159599883,0,0
2026-03-12T18:40:55.218,65769,-0.32620997619628905,0.8259995727539062,9.956287603759765,-140.17666303999997,-49.60650496,-208.1090997248,-1096.0,10397.0,-2868.0,-2.0556695576304054,-0.7489065872216618,-10.462453531647999,-0.23351545028841914,1.245720608796523,0.10849002880626024,-0.010483542506273992,0.03502581113410345,-0.01228992459374619,-0.0003900420676702919,0.0008664488838852475,-0.0005689972051936391,9.995816679568508,255.77274988482048,10840.860159599883,0,0
2026-03-12T18:40:55.218,65779,-0.939125601196289,0.948103857421875,8.85555339050293,-139.44252999679998,-51.2379845632,-204.420371746816,-1100.0,10402.0,-2873.0,-3.306678567632901,-1.1520760188799564,-12.50665724911616,-0.7735324860827765,1.6643209238355805,-1.0411855498532674,-0.017945584356595233,0.050893985066872365,-0.02236125339089468,-0.0005689284133250079,0.001374013345819417,-0.0007918171293634832,8.95553927306047,252.6998983361759,10847.383693776117,0,0
2026-03-12T18:40:55.218,65789,-0.41898529052734373,0.8571241943359375,9.539097964477538,-141.567127597056,-49.138945798144,-207.34674200707073,-1100.0,10402.0,-2873.0,-4.5744977698341645,-1.5812399301662143,-14.580124669186867,-0.2508524336265741,1.7341815945697612,-0.3814556896585444,-0.02014729706246806,0.06721226399738142,-0.02578317313316792,-0.0007696309825657388,0.0020440898498074378,-0.0010485992118344674,9.586688715823302,255.8291598531739,10847.383693776117,0,0
2026-03-12T18:40:55.218,65799,-0.30705636291503907,1.0767921966552734,10.945092889404297,-144.4817573892915,-47.28783013429248,-203.95900264650507,-1106.0,10385.0,-2854.0,-5.844744353359054,-1.999317681403178,-16.61971469565192,0.0,2.2897798891342545,0.954617505359387,-0.019845087606531038,0.0887584119453931,-0.01599344310838044,-0.0009671137767724182,0.0029287422952921074,-0.0012073251092753535,11.00221902174615,254.38237332343772,10826.669709564432,0,0
2026-03-12T18:40:55.219,65809,-0.48243163452148435,0.958279214477539,9.886855755615233,-146.44321679814814,-49.58480372354908,-200.84228243478466,-1106.0,10385.0,-2854.0,-7.116497735613475,-2.416030180808593,-18.628137519999765,-0.1489252949275957,2.3462377640216228,-0.1436305092591077,-0.021014325447469888,0.11053747774182518,-0.01716830197795694,-0.0011760797742158698,0.004030082955637649,-0.001377629120925868,9.944895980714369,253.4598408428959,10826.669709564432,0,0
2026-03-12T18:40:55.219,65819,-0.9409212524414062,0.9654618194580078,8.846575134277343,-148.24775945429627,-51.69801942566515,-197.97489984000188,-1109.0,10418.0,-2871.0,-8.376566695931444,-2.7984814868454886,-20.607886518399784,-0.4834103862157766,2.579097101462887,-1.2513058529615115,-0.02546070286998324,0.13428352202510724,-0.029236140099958476,-0.0014292561161127865,0.0053675452577128325,-0.0016683205314035273,8.94870610393152,252.67398829799262,10863.114010264277,0,0
2026-03-12T18:40:55.219,65829,-0.411802685546875,0.9313444458007812,9.94072529296875,-150.46793869795255,-50.12217787161194,-202.29690785280172,-1109.0,10418.0,-2871.0,-9.652741313810314,-3.2147801638690874,-22.630855596927802,0.11600945034075513,2.7522582728278686,-0.20109850693629205,-0.023936099241077053,0.1593790131820851,-0.030778418291781576,-0.0016669484914150336,0.00695437405414415,-0.001974128609607022,9.992747534027677,257.0542203843564,10863.114010264277,0,0
2026-03-12T18:40:55.219,65839,-0.6631938598632812,1.0366893188476562,9.998784683227539,-150.11050360211635,-50.91240364188298,-194.67315522457758,-1107.0,10411.0,-2862.0,-10.897748195940087,-3.611427390464179,-24.577587149173578,0.0,3.1722242287708338,-0.24505792930357195,-0.023577057752460898,0.18823473663774654,-0.03273056262104503,-0.001900816349870703,0.008827884699101094,-0.0022991328015816545,10.074236744345392,251.04356893050954,10853.82024911045,0,0
2026-03-12T18:40:55.219,65849,-0.5045779998779296,0.8511386901855468,9.504980590820312,-150.26166331394705,-49.07941135053235,-196.77930280661138,-1107.0,10411.0,-2862.0,-12.137604441967081,-3.9952885348817504,-26.545380177239693,0.24669724299882545,3.040956512006149,-0.7504136944398034,-0.020793434042635554,0.2153646372314409,-0.03963117907196142,-0.0021066419396067616,0.010970549540344087,-0.0026927491477089674,9.556343027526923,252.40730990493282,10853.82024911045,0,0
2026-03-12T18:40:55.219,65859,-0.018555062866210937,0.6793547210693359,9.730035546875,-150.96073024883128,-50.673058442489754,-188.3169585820825,-1095.0,10404.0,-2877.0,-13.382594600500793,-4.432853879131615,-28.428549763060516,0.7377680886167609,2.912998047831101,-0.5273397081949458,-0.013214516859120926,0.2408271984441056,-0.044231007511602215,-0.002236548321089773,0.013365442703260358,-0.0031319241636021643,9.753740762950809,246.61747265508615,10849.855759409891,0,0
2026-03-12T18:40:55.219,65869,-0.11252747802734374,0.7894879974365234,10.198700521850585,-152.5638718289248,-49.65921376709058,-190.4516018955159,-1095.0,10404.0,-2877.0,-14.618212684261676,-4.846050388140916,-30.333065782015677,0.8838963011034939,3.3500681064788647,-0.18141145351962606,-0.004309920540364696,0.2702129613162608,-0.045354445216096495,-0.0022773678789669263,0.016051504744106545,-0.003581883147147366,10.229831184618977,249.02527013129864,10849.855759409891,0,0
2026-03-12T18:40:55.219,65879,-0.46148236999511716,0.8463502868652343,9.61451531677246,-153.3987620826108,-50.08647666572333,-187.37547374387464,-1099.0,10399.0,-2873.0,-15.834456986450906,-5.225649928700775,-32.206820519454425,0.7483100636689183,3.5914214079239146,-0.8674160349634512,0.0031255823948796195,0.3015352677645675,-0.05321817648224505,-0.002243865942963112,0.019047790564330466,-0.004109950847057847,9.66272112618104,247.28405430598417,10844.405516209728,0,0
2026-03-12T18:40:55.219,65889,-0.105344873046875,0.8038532073974609,10.239401950073242,-153.92686111600193,-49.83955853246547,-186.86543584436467,-1099.0,10399.0,-2873.0,-17.045786985386233,-5.629370217963451,-34.075474877898074,1.2492152726065455,3.7065789085481446,-0.30910485328567816,0.015383469094130898,0.33352204099729826,-0.0554645866398753,-0.0020879412207697808,0.022360627963329147,-0.004659932116743143,10.271447308752753,247.17635663841386,10844.405516209728,0,0
2026-03-12T18:40:55.220,65899,0.1083376251220703,0.6631938598632812,10.044274514770507,-154.41271222672177,-49.61239384986823,-189.1162009768155,-1100.0,10397.0,-2871.0,-18.25440157060098,-6.042861137479128,-35.966636887666226,1.5098908447977637,3.5698301296972677,-0.5160334355976559,0.030025141878976907,0.36368203715985686,-0.059715547180914076,-0.0017859021121780319,0.02597145088659279,-0.005251830500963731,10.06672805159878,249.13773859580186,10842.059306238829,0,0
2026-03-12T18:40:55.220,65909,-0.2950853546142578,0.8463502868652343,9.986215124511718,-154.69969524858402,-47.88340234187878,-191.18690489867024,-1100.0,10397.0,-2871.0,-19.43171233839893,-6.398572035211505,-37.87850593665293,1.4947804708473544,4.057454396403804,-0.7606248036671879,0.04429835238863869,0.39819273240703645,-0.06631196828932216,-0.0013415756697033533,0.02992342483245249,-0.005909035233673096,10.02635909428798,250.55388349529167,10842.059306238829,0,0
2026-03-12T18:40:55.220,65919,-0.613514175415039,1.0935516082763672,10.374075793457031,-152.5637196286973,-46.53273015452847,-187.4119525067766,-1088.0,10416.0,-2869.0,-20.55272772421369,-6.710452689493952,-39.7526254617207,1.677150799389734,4.674053051112371,-0.6124074209028141,0.06015381247679799,0.43825926397438775,-0.07134950186087505,-0.000739297507390438,0.03427171145472417,-0.0066159077220295645,10.449579098307748,246.09799565413005,10858.543226418542,0,0
2026-03-12T18:40:55.220,65929,-0.4423287567138672,0.9283516937255859,9.97903251953125,-148.35862205840152,-44.0101117421662,-191.77899630623446,-1088.0,10416.0,-2869.0,-21.626045107852928,-7.005388655295189,-41.670415424783045,1.8769840349982092,4.4082015446652,-0.9928385829061099,0.07773979803437839,0.4751061602297242,-0.0800587193745871,3.806237248039253e-05,0.03898375028396439,-0.00740907842085966,10.031878269901474,246.4271780848295,10858.543226418542,0,0
2026-03-12T18:40:55.221,65939,-0.661398208618164,0.7607575775146483,8.504204296874999,-146.7299322937294,-45.0493028027929,-184.27667660173572,-1115.0,10409.0,-2871.0,-22.67026604620151,-7.27760095452079,-43.5131821908004,1.5703727851373324,3.996735844812512,-2.3973502822407493,0.09204187299746543,0.5073474158976816,-0.10247173886403968,0.0009575226213525917,0.04401316721849827,-0.008425362013690556,8.563742780180664,239.82703403353182,10855.097742535532,0,0
2026-03-12T18:40:55.221,65949,-0.38307226562499996,0.824802471923828,9.615712417602538,-147.63153771023104,-42.40535857856947,-186.57454247359686,-1115.0,10409.0,-2871.0,-23.7108432081449,-7.552034511437969,-45.37892761553637,2.2408154177036836,4.309302671741035,-1.458139622482019,0.11273327676688472,0.5421838359758656,-0.11529733806252697,0.002082770533632417,0.04938557057267867,-0.009568757058921509,9.658621473917401,241.66784076930142,10855.097742535532,0,0
2026-03-12T18:40:55.221,65959,-0.7613561279296874,1.1055226165771483,10.108917959594725,-151.26101469341256,-43.49292989228391,-182.60857907570914,-1108.0,10408.0,-2870.0,-24.751484625293806,-7.802934084327426,-47.20501340629346,2.5258924960438685,4.979447674617434,-1.2733602664158425,0.13592231870141355,0.5830986380312093,-0.12611047661578512,0.0034385517269259064,0.055161340396037775,-0.010819031963254282,10.197650009836407,241.07555385966742,10853.157512908398,0,0
2026-03-12T18:40:55.221,65969,-0.4285620971679687,0.9534908111572266,9.931148486328125,-154.12013351793954,-45.3734955009012,-187.5198927496524,-1108.0,10408.0,-2870.0,-25.816033191766397,-8.095923895740897,-49.08021233378999,2.852276357270198,4.622763002128047,-1.4272047759114024,0.1619784060400038,0.6198863740317024,-0.13827678650927566,0.005053277451538619,0.06129884393221844,-0.01218959802851869,9.986016245509902,246.93213607466922,10853.157512908398,0,0
2026-03-12T18:40:55.221,65979,0.05566518859863281,0.8942343200683593,11.01931314086914,-154.99052283650437,-46.3036158608291,-187.63830132968022,-1106.0,10410.0,-2868.0,-26.88585722639246,-8.43490292390003,-50.95659534708679,3.6536020067432315,4.672151995841907,-0.47658012710979314,0.19553670971582457,0.6566087755802698,-0.140896948963668,0.007001635904148169,0.06779706675633312,-0.013584968950637214,11.05567798594646,247.7382068571743,10854.342909637598,0,0
2026-03-12T18:40:55.236,65989,-0.21906945190429686,0.7769184387207031,9.749189160156249,-155.79128100958403,-47.15932659196277,-187.7472372233058,-1106.0,10410.0,-2868.0,-27.94876891808412,-8.753650998008354,-52.83406771931985,3.298988679349044,4.3478453914659525,-1.688078875034405,0.22509869756167528,0.6895859210525054,-0.15541107164830187,0.009243370256885156,0.07461823304089132,-0.015123940587453113,9.78254992145146,248.4833000589755,10854.342909637598,0,0
2026-03-12T18:40:55.239,65999,0.04129997863769531,0.8062474090576172,10.48361051940918,-157.5679785288173,-50.82658046460575,-182.48745824544133,-1090.0,10413.0,-2877.0,-29.01561640173862,-9.126363799104633,-54.65894230177426,3.941465391094842,4.451545638174064,-1.1344863658444808,0.2605456512005343,0.7230898567727323,-0.16425459627714548,0.011836977942121608,0.08176728247701003,-0.016749720063674343,10.514648358148474,246.39943497553838,10857.983146054336,0,0
2026-03-12T18:40:55.244,66009,-0.19871873779296872,0.852335791015625,10.248380206298828,-156.0825402465119,-47.80045402743729,-185.88846158580603,-1090.0,10413.0,-2877.0,-30.046481791712935,-9.443697518241706,-56.51782691763232,4.022720911420982,4.557021997269967,-1.5092691315893028,0.296261267410023,0.7571301755942504,-0.17665707827914293,0.014784791025605617,0.08924924564871958,-0.018497774555619306,10.285682393028372,247.38868795029987,10857.983146054336,0,0
2026-03-12T18:40:55.254,66019,0.12210428466796874,0.6979097839355468,10.11909331665039,-156.07593702679097,-48.13641770524231,-180.05738465894154,-1094.0,10408.0,-2886.0,-31.07395126176833,-9.786531275904338,-58.318400764221735,4.274903203847152,4.156170053705689,-1.5999764865511263,0.3339251449567671,0.7867114979893377,-0.18976699049748438,0.018105918432698116,0.09701924426798435,-0.020375049016133556,10.14386696846552,243.09972151054066,10855.979734690001,0,0
2026-03-12T18:40:55.264,66029,-0.36571430358886714,0.8828618621826171,10.022726699829102,-156.1498620646477,-46.60550428882293,-185.1727938862262,-1094.0,10408.0,-2886.0,-32.07040869098499,-10.06757266915313,-60.170128703083996,4.38871859388801,4.548553314908168,-1.9696828337989842,0.3721451459322125,0.819714075671343,-0.2063218615529421,0.02180554252212822,0.10511116863967308,-0.022415829364031314,10.068179702359966,246.66539288772313,10855.979734690001,0,0
2026-03-12T18:40:55.281,66039,-0.29089550170898437,0.852934341430664,9.90122096557617,-156.5378730994759,-47.11706394571709,-182.03897037532812,-1096.0,10397.0,-2871.0,-33.057397311613414,-10.355512466076597,-61.990518406837275,4.603797210298956,4.367847925506475,-2.1533337554584397,0.411910371264674,0.8504416666025116,-0.2244373711209136,0.025898721588540185,0.11350196972039249,-0.02463554287216521,9.94214734314833,244.66775464838435,10841.654209575216,0,0
2026-03-12T18:40:55.284,66049,-0.4525041137695312,0.834379278564453,9.498995086669922,-153.29484325151782,-43.427698830059725,-185.39585274530185,-1096.0,10397.0,-2871.0,-33.996192027117914,-10.587189190572099,-63.84447693429029,4.592187962446417,4.2672845457513215,-2.6070702391243996,0.4509647671258011,0.8797177943791246,-0.2467504524094752,0.030377960890538395,0.12217684851651955,-0.027075944348863703,9.546300666229584,244.4522370696154,10841.654209575216,0,0
2026-03-12T18:40:55.295,66059,-0.8295908752441405,0.9738415252685546,9.261969122314452,-153.0312557913964,-42.75348292365494,-185.9241845256777,-1104.0,10405.0,-2870.0,-34.9035731187264,-10.773147312205271,-65.70371877954707,4.681540830093417,4.451122821381961,-3.0471129267624395,0.4903134727953342,0.9103655872540499,-0.2730632579519431,0.035245814522873245,0.13114922388467098,-0.02977677035145475,9.349901622976152,244.56947467485247,10849.872856397904,0,0
2026-03-12T18:40:55.312,66069,-0.19692308654785154,0.6649895111083984,9.235034353637694,-155.8287553280847,-46.37320428976255,-181.69024976362348,-1104.0,10405.0,-2870.0,-35.85315370984469,-11.050050064589792,-67.52062127718331,4.902192294214811,3.709494200839327,-2.8802503039639387,0.5312453648014202,0.9332486213235065,-0.29733777457670874,0.04051770990271656,0.14034122838780816,-0.03271739794912462,9.261039318822057,243.81226778480203,10849.872856397904,0,0
2026-03-12T18:40:55.314,66079,0.010773907470703125,0.7799111907958984,10.435726486206054,-158.40245490183793,-49.703347946581545,-177.7950297825336,-1096.0,10405.0,-2873.0,-36.8115099979297,-11.374762110705568,-69.29857157500865,5.887113096649221,3.876448788704476,-2.0718061739537195,0.5812647483313936,0.957432912572393,-0.3132849987715023,0.04628402702864447,0.14976564195601855,-0.0358143976889028,10.464834677982898,243.25466723456665,10849.855759409891,0,0
2026-03-12T18:40:55.324,66089,-0.6218938812255859,0.9929951385498046,9.87608184814453,-158.69025850969092,-48.607080110855016,-179.7314273999309,-1096.0,10405.0,-2873.0,-37.736313380100384,-11.629143738822345,-71.09588584900796,5.793621580736526,4.162573207166033,-2.8772404082565055,0.6296129496766776,0.9840727649743926,-0.3369265418112563,0.05252757636888583,0.1594467632361567,-0.03914447944390835,9.945339814000286,244.639801295685,10849.855759409891,0,0
2026-03-12T18:40:55.334,66099,-0.5063736511230469,0.8894459167480468,9.580397943115234,-155.43503782891565,-47.67851370198662,-175.35291320793644,-1101.0,10415.0,-2863.0,-38.621741607615796,-11.879150465580784,-72.84941498108732,5.811184640583129,3.804838324515497,-3.1294581157445442,0.6774089241412713,1.0067893309962543,-0.3626978061241712,0.059242363944688244,0.16934514188957311,-0.04272868604764491,9.634913235822005,239.12744682327258,10857.310670695575,0,0
2026-03-12T18:40:55.344,66109,-0.34117373657226563,0.8684966522216796,9.945513696289062,-152.2002348026024,-43.624232605827686,-182.76468015130152,-1101.0,10415.0,-2863.0,-39.46672698788053,-12.101302737759237,-74.67706178260033,6.260659879383443,3.6102320786554527,-2.9106880765664096,0.7289152900910791,1.0272482770060667,-0.3859276165864877,0.06646498532875343,0.17943800703497415,-0.04654137425129628,9.989190589658417,241.8075959419435,10857.310670695575,0,0
2026-03-12T18:40:55.354,66119,-0.3447650390625,0.9516951599121093,10.186729513549803,-150.58421601839422,-44.93429399736147,-176.7035057391974,-1108.0,10405.0,-2872.0,-40.277920130688564,-12.333435834213683,-76.44409683999231,6.670808810314653,3.5272734315010283,-2.8890856347452827,0.7836890275213123,1.0465831961512608,-0.4085961958399314,0.0742275737283626,0.18971393515749027,-0.05057670887348589,10.236896247974116,236.47161739083677,10850.809785449195,0,0
2026-03-12T18:40:55.364,66129,-0.5596446380615234,0.834379278564453,9.205106832885741,-149.01747873692267,-43.33955047757256,-178.72722528006162,-1108.0,10405.0,-2872.0,-41.063883807680945,-12.52335432531599,-78.23136909279293,6.141467043797224,3.2534328258528236,-3.68774976353067,0.8324271424898952,1.062930761543642,-0.4387915880731095,0.08246929330810829,0.20014289953015377,-0.054909660129462766,9.259772281554689,236.7022320575308,10850.809785449195,0,0
2026-03-12T18:40:55.386,66139,-0.4225765930175781,0.8762778076171874,9.718663088989258,-146.37608043796885,-42.352386439366754,-175.46904725765668,-1109.0,10414.0,-2871.0,-41.812448286986616,-12.7154801208208,-79.9860595653695,6.697271592429689,3.089657961646545,-3.403571606942535,0.8859088605379792,1.077419931042706,-0.4657348945803968,0.09123705353157459,0.21070618174174024,-0.05950744206619147,9.767233283298344,232.39851141305087,10859.277968631248,0,0
2026-03-12T18:40:55.398,66149,-0.4082113830566406,0.6919242797851562,8.911218579101561,-143.94599400293134,-43.684195524217415,-175.19152347704414,-1109.0,10414.0,-2871.0,-42.53653104117872,-12.915812965307058,-81.73797480013994,6.213487433151641,2.681709332379377,-3.9537685488313468,0.9338230788464532,1.0876734690010021,-0.4976934913676796,0.10047470903571908,0.2213613335153185,-0.0644198926028884,8.94735783942601,230.91303130464013,10859.277968631248,0,0
2026-03-12T18:40:55.400,66159,-0.42018239135742186,0.9307458953857422,10.150816488647461,-141.71031448269684,-44.909459882280025,-176.45620159888063,-1108.0,10396.0,-2866.0,-43.21574617387032,-13.129027127854808,-83.50253681612874,7.359981861775498,2.795592606506015,-3.318410984460728,0.9923115540022449,1.0988949541400714,-0.5229144371941026,0.11028742675116579,0.23211793277366252,-0.06957938793785459,10.202054525926698,230.72811683972927,10840.592050252606,0,0
2026-03-12T18:40:55.404,66169,-0.6374561920166015,0.8649053497314453,9.115922821044922,-144.5334893240811,-47.23670309169762,-177.6197054709702,-1108.0,10396.0,-2866.0,-43.909866127504394,-13.337639810516151,-85.27873387083844,6.757305074724112,2.561789676435067,-4.147098576008829,1.0439863356782437,1.107645158140856,-0.5559196416098781,0.12060656281784027,0.242951189970716,-0.07506344576959942,9.179022853222557,233.81615732613872,10840.592050252606,0,0
2026-03-12T18:40:55.414,66179,-0.31663316955566406,0.814627114868164,9.676166009521484,-140.49081017815462,-44.017766844361816,-174.53012903329258,-1090.0,10396.0,-2865.0,-44.56286768966289,-13.543135936375204,-87.02403516117137,7.267301201898478,2.168628808744572,-3.734134468943018,1.09990945748177,1.112391474534877,-0.5843620715048186,0.13147405173526533,0.25382102961134867,-0.08082615941816296,9.715557757749178,228.33308451220256,10838.502710245544,0,0
2026-03-12T18:40:55.424,66189,-0.7260416534423828,1.0103531005859374,9.74200655517578,-136.29154536390226,-40.25634549681287,-178.00771871062918,-1090.0,10396.0,-2865.0,-45.14808089379117,-13.67292076526373,-88.80411234827766,7.572252453247553,2.3188131347360987,-3.9981441661433577,1.1579975022840319,1.1185459117940044,-0.6149783604687583,0.14291097273134754,0.26474148224055943,-0.08688896707982768,9.821132398633308,227.77775705937987,10838.502710245544,0,0
2026-03-12T18:40:55.434,66199,-0.3393780853271484,0.8667010009765624,9.900023864746093,-135.30822173479007,-41.11583785706784,-173.28710121377884,-1098.0,10411.0,-2871.0,-45.72859732093482,-13.843479667072074,-90.53698336041545,7.710688622850736,1.7623906951134776,-3.780367511462482,1.2165778226848512,1.1191272714639622,-0.6429903050496324,0.15492167420723785,0.27565682220024385,-0.09322555126019369,9.943682448290284,223.667714341597,10855.28286135373,0,0
2026-03-12T18:40:55.444,66209,-0.4578910675048828,0.9050082275390624,9.949703549194336,-138.16356399600687,-37.58657082850241,-180.9441331166765,-1098.0,10411.0,-2871.0,-46.325621078425996,-13.966693575165662,-92.34642469158221,7.894404635622676,1.6228563205549251,-3.884655601964935,1.2760890410054617,1.1183254971494687,-0.6716093081532425,0.16751488205267517,0.2865532370945668,-0.09984170269738439,10.001265161891496,230.74379738591082,10855.28286135373,0,0
2026-03-12T18:40:55.454,66219,-0.32920272827148434,1.006761798095703,10.638635076904297,-141.43047887632633,-35.45964516222222,-180.4686024673424,-1111.0,10409.0,-2870.0,-46.942737727304014,-14.080002860509568,-94.15111071625564,8.57656709702064,1.2898968268469841,-3.555157133465011,1.341426891296033,1.1142560984366696,-0.6965534662955742,0.18074822181466987,0.2973981022808546,-0.10670043012297979,10.691234730092908,232.01052404305577,10854.423153719408,0,0
2026-03-12T18:40:55.464,66229,-0.6572083557128906,0.8014590057373047,8.775347634887694,-142.5960405662202,-32.702873549244444,-184.271114269955,-1111.0,10409.0,-2870.0,-47.564891829460755,-14.126945930016308,-95.9938218589552,7.1813855801104385,1.1948004213853236,-4.798542715140317,1.3920421358906803,1.1093110411107652,-0.7333708100452727,0.1944739745304031,0.30818272147927034,-0.11392010408520908,8.836344576453847,235.28483223070674,10854.423153719408,0,0
2026-03-12T18:40:55.476,66239,-0.35613749694824215,0.8409633331298828,9.68454571533203,-143.82835732092258,-31.84664366530489,-186.1694251283586,-1097.0,10404.0,-2859.0,-48.19368480686372,-14.19725899500893,-97.85551611023878,7.949063277883693,0.6949669354882805,-4.243027715953711,1.4494597771394744,1.0995167998086632,-0.7641640708967377,0.20875960372949606,0.3188587115878796,-0.12144018304938228,9.727511447269412,237.402316616758,10845.298797174746,0,0
2026-03-12T18:40:55.486,66249,-0.05386953735351562,0.7326257080078125,9.889249957275391,-144.96208873524876,-31.058912172080497,-187.9158711180899,-1097.0,10404.0,-2859.0,-48.83510252254759,-14.285561640874729,-99.73467482141967,8.070309452714165,0.1600614009257612,-4.046320776949806,1.5072104285916168,1.0846006526106522,-0.7925578694862422,0.22360787630739684,0.3293750133958721,-0.12923639598250047,9.916496713686742,239.35546330482978,10845.298797174746,0,0
2026-03-12T18:40:55.494,66259,-0.5105635040283203,0.8888473663330078,9.572018237304688,-149.04512163642886,-30.57419919831406,-181.5226014286427,-1098.0,10424.0,-2866.0,-49.491092266385564,-14.326831656409498,-101.5499008357061,8.069579748369287,0.25550685903037557,-4.5634776017974525,1.56408763268418,1.0708483853829416,-0.8256197558216534,0.2390095038816044,0.3397434137524519,-0.1373551009471763,9.626747003405479,236.85372019383175,10866.431612999733,0,0
2026-03-12T18:40:55.504,66269,-0.4165910888671875,0.8271966735839843,9.475651620483397,-151.76151190551454,-28.848263262448935,-184.12079331435126,-1098.0,10424.0,-2866.0,-50.168740184514604,-14.358467175971903,-103.3911087688496,7.9998456066395445,-0.10438621014397773,-4.645511569968949,1.6194247974193168,1.0537574554322793,-0.8589937484485227,0.2549485481039418,0.3499307073184679,-0.14579909339322986,9.520807534284137,240.3419341684119,10866.431612999733,0,0
2026-03-12T18:40:55.515,66279,-0.7206546997070312,0.8176198669433593,8.641272341918945,-154.0205909530734,-28.22040220145302,-179.87112984920316,-1104.0,10396.0,-2855.0,-50.85223509910417,-14.34986881657323,-105.18982006734164,7.461528534182807,0.0,-5.314333819707325,1.6686294815197276,1.0379510936007952,-0.898455030345912,0.27136320807621994,0.3599499080362214,-0.15462886005299228,8.709732092908693,238.479258828047,10837.280885904915,0,0
2026-03-12T18:40:55.524,66289,-0.3597287994384765,0.8116343627929687,9.5630399810791,-154.57894367682752,-25.882770025336782,-186.4414394612669,-1104.0,10396.0,-2855.0,-51.53928644102813,-14.357367889881047,-107.05423446195431,8.130086142991216,-0.7515948526328444,-4.749309462447953,1.7236813878053951,1.0149786178983495,-0.9317589030958356,0.2883114219323196,0.3697295945209897,-0.16378250263486668,9.604159975121675,243.5671939338661,10837.280885904915,0,0
2026-03-12T18:40:55.534,66299,-0.33099837951660155,1.0696095916748045,10.91037696533203,-152.77262818268133,-26.85214842330984,-182.32612430436552,-1118.0,10389.0,-2856.0,-52.187020189046905,-14.380559775415685,-108.87749570499797,9.349589089085816,-1.3241972950738223,-4.2279731389101105,1.7899196195158094,0.9867105952733971,-0.9594280549676627,0.3059044075093503,0.37921710377324996,-0.17320340640135876,10.967677517664947,239.38113835605805,10832.265737139207,0,0
2026-03-12T18:40:55.544,66309,-0.14963760375976562,0.8678981018066406,10.426748229980468,-153.11081792806684,-28.78397654944505,-186.38003436001628,-1118.0,10389.0,-2856.0,-52.840983478013776,-14.436082841997697,-110.74129604859813,8.80772610814546,-1.6859319474601102,-4.414589962184624,1.849826927388305,0.9553035066618141,-0.9885203452706663,0.32407827410645007,0.38838136870102824,-0.18290552124421136,10.463876775792965,242.91759318880443,10832.265737139207,0,0
2026-03-12T18:40:55.554,66319,-0.5985504150390625,1.1013327636718748,10.462062704467773,-150.94195249382147,-31.761258425489444,-185.94963161121498,-1098.0,10406.0,-2867.0,-53.445006749514185,-14.483543183720498,-112.60079236471029,9.100808420449757,-1.712324940784485,-4.779803883463874,1.9117224864189106,0.9241075533951597,-1.0207736083437255,0.3428523034716685,0.39722482179074486,-0.19292014407032096,10.536885331439082,241.59783950971985,10849.429892856122,0,0
2026-03-12T18:40:55.564,66329,-0.6566098052978515,0.9283516937255859,9.490016830444336,-148.94659629431575,-34.50035775145029,-178.67366108231778,-1098.0,10406.0,-2867.0,-54.02664871314051,-14.547030312024745,-114.38752897553347,8.25421811876322,-1.714134942222961,-5.302982894906142,1.9643506975924445,0.8933617109133362,-1.0576963857333952,0.3621333146371453,0.40575228046097833,-0.20329361081972724,9.557896878799918,235.15875573152468,10849.429892856122,0,0
2026-03-12T18:40:55.615,66339,-0.9618705169677734,1.0390835205078124,9.294290844726563,-152.1508685907705,-37.42032913133426,-171.97976819573236,-1109.0,10394.0,-2877.0,-54.61924903178622,-14.609331991469464,-116.10732665749079,8.257803074023627,-1.7366274653211635,-5.661587250449768,2.0162247974076903,0.8628555047162226,-1.0975975743643245,0.381913267048611,0.4139664546726324,-0.21405531697680713,9.401528160909308,232.65254890905695,10841.690181885848,0,0
2026-03-12T18:40:55.615,66349,-0.6482300994873047,0.9247603912353515,9.43614729309082,-152.61879910350885,-37.626702800827516,-174.62138674007377,-1109.0,10394.0,-2877.0,-55.21929714018867,-14.702147551722389,-117.85354052489153,8.159931230391127,-2.2757395998933463,-5.499354866305407,2.0663567480659277,0.8274966370865299,-1.135302256181968,0.402174257694741,0.42181917962245413,-0.2251829311990882,9.50348671698889,234.94870782893318,10841.690181885848,0,0
2026-03-12T18:40:55.615,66359,-0.8134300140380859,1.0480617767333984,9.675567459106444,-153.44929517522814,-42.05656657676131,-169.45167580086786,-1099.0,10412.0,-2873.0,-55.80975023595929,-14.824205993537658,-119.5480572829002,8.439287332547183,-2.536038979090479,-5.596704258479158,2.1184883770705283,0.7901042035861907,-1.1734002592852582,0.4229357823239808,0.4292905014366577,-0.23668001685814885,9.766099914055104,232.44206033702739,10856.872201513657,0,0
2026-03-12T18:40:55.615,66369,-0.40581718139648437,0.8337807281494141,9.501389288330078,-154.6133515612099,-43.8120412506204,-174.53554173679842,-1099.0,10412.0,-2873.0,-56.42031956871103,-14.996846375261978,-121.29341270026819,7.974831456557281,-3.0077586437268264,-5.506449135350244,2.1652631412615593,0.7486262178916887,-1.2100377793791792,0.4441438253228598,0.436339986851959,-0.24853161425728867,9.546532160724306,237.24973923883257,10856.872201513657,0,0
2026-03-12T18:40:55.615,66379,-0.5416881256103515,0.9050082275390624,9.673173257446289,-155.20428343631312,-44.62707795057077,-172.49269839785455,-1106.0,10407.0,-2874.0,-57.022602685478915,-15.163601617965362,-123.01833968424674,8.14433011970056,-3.2634843694751483,-5.599239459365258,2.2130058458216864,0.7052515035839831,-1.2470397213632394,0.4658076098972956,0.44294910938591103,-0.2607410094594501,9.730505988175265,236.2915078540889,10853.053072753308,0,0
2026-03-12T18:40:55.624,66389,-0.2561795776367187,0.6931213806152343,9.170390908813475,-154.22794076140806,-42.25691171452512,-176.05328252602618,-1106.0,10407.0,-2874.0,-57.62157373295469,-15.328443843649389,-124.778872509507,7.459184858927415,-3.4872525625990187,-5.702780429739813,2.2532837289947962,0.660323293288623,-1.284506512775728,0.4878521067400563,0.44910278997647846,-0.2733124885126202,9.200114925625273,237.8374709488443,10853.053072753308,0,0
2026-03-12T18:40:55.637,66399,0.06584054565429687,0.7224503509521484,10.14542953491211,-153.32970550049544,-41.27635877736311,-173.0890199239441,-1104.0,10402.0,-2874.0,-58.20645085136169,-15.510652619999677,-126.50976270874644,7.951816983135477,-4.390955796846855,-5.230174959997586,2.297809870343759,0.6071675292903522,-1.3167561384400683,0.5103193752380504,0.4547192908041126,-0.28619356984712385,10.171332751164416,234.89049619134823,10848.054940863824,0,0
2026-03-12T18:40:55.644,66409,-0.2699462371826172,0.8744821563720703,9.980828170776366,-152.9833290604558,-41.17425007517406,-169.2418983300286,-1104.0,10402.0,-2874.0,-58.76513111102879,-15.660408770066171,-128.20218169204674,7.962639656682325,-4.414746377109288,-5.61607663696533,2.3417747229069232,0.5545747645364704,-1.3523231512375757,0.5332033853446525,0.4598047734110278,-0.29941708455814015,10.022700284222077,231.82329043912821,10848.054940863824,0,0
2026-03-12T18:40:55.654,66419,-0.029328970336914062,0.7332242584228515,9.899425314331054,-152.66466273561932,-41.08031006916013,-165.7025464636263,-1089.0,10414.0,-2865.0,-59.323860892623664,-15.827604407666593,-129.859207156683,7.613491902641637,-4.749462467611439,-5.5623070740785145,2.3816409973043395,0.4994739377624506,-1.3868270286486855,0.5564627755223781,0.4643347132758637,-0.31297206948978235,9.926585493293214,229.02276093892712,10855.668657434235,0,0
2026-03-12T18:40:55.664,66429,-0.20530279235839843,0.9504980590820312,10.69968721923828,-152.53148971676976,-37.95388526362731,-169.7263427465362,-1089.0,10414.0,-2865.0,-59.860290676041295,-15.94761215062833,-131.55647058414837,8.241590833343698,-5.371432246738734,-5.48776142296536,2.42709605205321,0.4390732210656373,-1.420079073235164,0.5801530023068673,0.4682567200410335,-0.32684568736191183,10.743784360568666,231.32960075169004,10855.668657434235,0,0
2026-03-12T18:40:55.674,66439,-0.527322915649414,1.0307038146972656,10.223241088867187,-150.56897053942816,-36.67757444253713,-167.3482353268133,-1099.0,10424.0,-2878.0,-60.35913435391403,-16.025603907100006,-133.2299529374165,7.979219567601438,-5.228949974540746,-5.953701073806,2.469284924013286,0.38098196550042635,-1.4574218427136256,0.6,0.47159447315634173,-0.341078485883259,10.28858970763743,228.08264121429656,10869.703813812039,0,0
2026-03-12T18:40:55.692,66449,-0.3603273498535156,0.7577648254394531,9.309853155517578,-151.7234528962739,-33.82336848713416,-174.76037650066823,-1099.0,10424.0,-2878.0,-60.878424352368015,-16.08524257312008,-134.9775567024232,7.016390472115515,-5.00613109434238,-6.189147364743,2.5013570963034244,0.3259568447386475,-1.49652361661564,0.6,0.47437918756212444,-0.35568767832736603,9.347588411297663,233.89146117214202,10869.703813812039,0,0
2026-03-12T18:40:55.698,66459,-0.007781155395507812,0.603338818359375,9.356540087890625,-151.18557666457198,-32.637499008163424,-171.41954638061478,-1103.0,10392.0,-2869.0,-61.39908338629121,-16.16473005012227,-136.69175216622932,6.63834620464249,-5.428581885024103,-6.01563706447476,2.5292244499746013,0.2675959605000804,-1.5333297874514817,0.6,0.4765780920199581,-0.37064995522567895,9.3759757194877,230.88296995283733,10837.039909495581,0,0
2026-03-12T18:40:55.704,66469,-0.2747346405029297,0.7176619476318359,9.290699542236327,-148.05073053140623,-30.74649908751035,-177.54598267016559,-1103.0,10392.0,-2869.0,-61.8701410414912,-16.199780593668486,-138.46721199293097,6.637014329284503,-5.518459491642816,-6.284681600106156,2.556660674368435,0.20922519509989745,-1.572233954400755,0.6,0.4781916736269861,-0.3859859224749168,9.322425423562331,233.21008121291857,10837.039909495581,0,0
2026-03-12T18:40:55.714,66479,-0.20709844360351562,0.9463082061767577,10.791265432739257,-146.76667208889373,-30.046779160509523,-178.30230405655232,-1096.0,10402.0,-2863.0,-62.31256717755186,-16.236316004968035,-140.2502350334965,7.441989786658816,-6.81105602594235,-5.854928545621675,2.591614363651497,0.13899791531786682,-1.6063214912591173,0.6,0.4791020711273846,-0.40164708825012047,10.834657291592276,232.8840411145524,10844.334419409981,0,0
2026-03-12T18:40:55.724,66489,-0.4560954162597656,0.9277531433105468,9.930549935913085,-147.02533832178224,-32.36303682766876,-179.23811973202814,-1096.0,10402.0,-2863.0,-62.746018496379634,-16.272273027930897,-142.04261623081678,6.858958955621024,-6.384768940517611,-6.360786019134399,2.620300893909592,0.07402297252400034,-1.6448804111787043,0.6,0.479362458551772,-0.4176777964695456,9.984216091076913,234.0728942582127,10844.334419409981,0,0
2026-03-12T18:40:55.734,66499,-0.6051344696044921,1.0019733947753906,10.013748443603514,-148.78331125603964,-33.773993881455254,-179.61907015346588,-1102.0,10396.0,-2870.0,-63.184634075676385,-16.30924690240532,-143.83880693235145,6.830376227892326,-6.637187935648061,-6.499235119123352,2.6482755863456875,0.007536326770006922,-1.6842246709343889,0.6,0.4789583839976526,-0.4340855231357106,10.081929195442362,235.66961351394423,10841.03869562322,0,0
2026-03-12T18:40:55.744,66509,-0.5704185455322265,0.9139864837646484,9.611522564697266,-150.40064635555646,-35.072074370938836,-179.9695445411886,-1102.0,10396.0,-2870.0,-63.6368297116627,-16.359350842111283,-145.63850237776333,6.343510075464549,-6.586861141126264,-6.657800233612777,2.6710350267938283,-0.057457300371636884,-1.7245406331714588,0.6,0.4779054271829423,-0.4508795985379577,9.67171725296373,237.1485648010814,10841.03869562322,0,0
2026-03-12T18:40:55.754,66519,-0.18435352783203124,0.6566098052978515,9.18715032043457,-149.72859464711195,-37.62630842126373,-174.53198097789354,-1104.0,10404.0,-2862.0,-64.09578385888143,-16.46738004537194,-147.38382218754228,5.5752177679032195,-6.584158769064576,-6.576378523157112,2.6858853964057676,-0.12144940474134841,-1.7634498521269844,0.6,0.47621424220239333,-0.46804558296216836,9.212429303386726,233.01459938055172,10846.800265516094,0,0
2026-03-12T18:40:55.764,66529,-0.2609679809570312,0.9062053283691406,10.292672937011718,-150.870307075343,-36.29620374756263,-180.32942249966206,-1104.0,10404.0,-2862.0,-64.5449462268086,-16.55618474706308,-149.1871164125389,6.057212942261372,-7.661752113253492,-6.4249116157219035,2.7052606629409555,-0.19509592198577508,-1.8002834837599402,0.6,0.473789019699553,-0.485562369381968,10.335783887666325,237.90326728011635,10846.800265516094,0,0
2026-03-12T18:40:55.774,66539,-0.20231004028320312,0.9702502227783203,10.803236441040038,-151.44068250931554,-34.91250744775762,-177.1030686996891,-1106.0,10413.0,-2877.0,-64.99148235930241,-16.635702053565037,-150.95814709953578,6.044333706803169,-8.311370003780185,-6.331108150261711,2.724218440008852,-0.27403647769322326,-1.8356406467836188,0.6,0.4705776062676981,-0.5034148570739544,10.84860509227874,235.62398103339106,10859.601005561852,0,0
2026-03-12T18:40:55.795,66549,-0.4159925384521484,0.9080009796142577,9.937732540893554,-150.2054279085703,-33.95950685193701,-181.73482320371394,-1106.0,10413.0,-2877.0,-65.41782512328109,-16.68486169323129,-152.77549533157293,5.506016311590576,-7.7549642509401835,-6.757001254898149,2.7375894240778864,-0.3463123283995857,-1.8746624994426113,0.6,0.4666473685007186,-0.5216393205863121,9.987794732840827,238.20676867735858,10859.601005561852,0,0
2026-03-12T18:40:55.795,66559,-0.3908534210205078,0.8655039001464844,9.808445651245117,-149.4689936758847,-35.00274630378205,-177.27603734741683,-1092.0,10410.0,-2876.0,-65.83318597624346,-16.745268877308405,-154.5482557050471,5.175213383565586,-7.839977693941307,-6.8301779802444305,2.747501434544839,-0.4183414237589138,-1.9138198150563799,0.6,0.46200149030886634,-0.5402367412181391,9.854312228223819,234.50579041228667,10855.042146394459,0,0
2026-03-12T18:40:55.806,66569,-0.6715735656738281,0.9187748870849609,9.235632904052734,-148.8714741818139,-35.162526599479484,-179.89395435962348,-1092.0,10410.0,-2876.0,-66.22685451361237,-16.778361527412073,-156.34719524864335,4.89055425879066,-7.489456684272603,-7.2409939236911836,2.754460872475754,-0.4858374507426152,-1.9564363079788922,0.6,0.45668597268563876,-0.5592413031936302,9.305486203615121,236.13757413225852,10855.042146394459,0,0
2026-03-12T18:40:55.814,66579,-0.4950011932373047,0.8649053497314453,9.51276174621582,-150.2417562472688,-35.70952447152113,-178.7024380108536,-1100.0,10403.0,-2879.0,-66.63540680985054,-16.83392722437925,-158.13421962875188,4.620347527964505,-7.925086084455727,-7.099045383301696,2.7586543825390684,-0.5566119869133649,-1.9970153603847307,0.6,0.45066873296368865,-0.57863224534068,9.564816960379716,236.1828037966966,10849.933179517742,0,0
2026-03-12T18:40:55.828,66589,-0.4542997650146484,0.737414111328125,8.922591036987304,-151.5024157474873,-36.21276251379944,-176.56624296998532,-1100.0,10403.0,-2879.0,-67.0573067808767,-16.89454127926415,-159.89988205845174,4.094679887450414,-7.557328569784475,-7.260441020157055,2.757607163692369,-0.6227024935220414,-2.038575474027507,0.6,0.44399726632043973,-0.5984189820808741,8.964530030146832,235.45696911058127,10849.933179517742,0,0
2026-03-12T18:40:55.834,66599,-0.09157821350097656,0.7433996154785156,9.81263550415039,-149.8622224876883,-36.195741512695484,-174.6009435323865,-1092.0,10404.0,-2874.0,-67.46260378138327,-16.989653514082075,-161.6458914937756,3.8794063867921484,-8.562162884620342,-6.893161040326296,2.754455209146886,-0.6976992605327211,-2.0758944781643085,0.6,0.4365832534413974,-0.6,9.841181082308891,232.9255394219425,10848.758269958826,0,0
2026-03-12T18:40:55.844,66609,-0.2166752502441406,0.833182177734375,10.073603485107421,-149.39324468867324,-37.70008219167985,-179.2728680497956,-1092.0,10404.0,-2874.0,-67.85126607949677,-17.087734444649044,-163.43862017427355,3.799882333590425,-8.93178324758143,-6.97773321974257,2.7505672219955484,-0.7752118366134073,-2.113486733206308,0.6,0.4284023039401881,-0.6,10.110322837601721,236.38612263554862,10848.758269958826,0,0
2026-03-12T18:40:55.854,66619,0.08439560852050781,0.8361749298095703,10.813411798095702,-147.6817851135794,-40.604075616345455,-173.65103860581195,-1097.0,10424.0,-2875.0,-68.22183650509004,-17.238056132249206,-165.17513056033167,3.4976414628311656,-9.782574753985859,-6.6915382480177925,2.743760482074502,-0.8599420203909669,-2.147696083951189,0.6,0.4193830808525421,-0.6,10.846021659907144,231.54542495991697,10868.707834880834,0,0
2026-03-12T18:40:55.867,66629,-0.36092590026855464,0.824802471923828,9.792284790039062,-149.62724230449305,-37.835749567037816,-178.87895551734698,-1097.0,10424.0,-2875.0,-68.60011755834029,-17.320616099422512,-166.96392011550515,3.2736579787387177,-8.909308193483996,-7.236280574379245,2.734849605933961,-0.9347995757909198,-2.1867580063495566,0.6,0.4096250500095383,-0.6,9.833585715923093,236.25735186851662,10868.707834880834,0,0
2026-03-12T18:40:55.874,66639,-0.239420166015625,0.6979097839355468,9.300276348876952,-153.7370629201336,-36.96888960167479,-174.08863907595924,-1103.0,10398.0,-2863.0,-69.02105281325946,-17.402892528527197,-168.70480650626473,2.759285965124128,-8.558982785297426,-7.3227629471050335,2.721005828601424,-1.0050835625892356,-2.226085851283298,0.6,0.3991746401692623,-0.6,9.329498392083464,235.17788494883942,10841.207589563073,0,0
2026-03-12T18:40:55.887,66649,-0.28311434631347654,0.8667010009765624,10.08018753967285,-153.19809788652293,-37.1313784335408,-178.0815479498825,-1103.0,10398.0,-2863.0,-69.42102465638533,-17.48354989777809,-170.48562198576354,2.6859815575900017,-9.42730117185929,-7.286134005108298,2.706647659514664,-1.082866225693211,-2.264462983464365,0.6,0.38795763193441785,-0.6,10.121339100788893,237.82647914109518,10841.207589563073,0,0
2026-03-12T18:40:55.894,66659,-0.5009866973876953,0.6721721160888672,8.52934341430664,-154.5422500556011,-37.360868158857535,-177.3550241138919,-1093.0,10403.0,-2870.0,-69.83436049958343,-17.539034031285443,-172.25917222690245,2.2725758398181477,-8.005063423263481,-7.755586679283918,2.688432816644153,-1.145473107026958,-2.306888567503346,0.6,0.3761263979632841,-0.6,8.570443518499077,238.1888874407676,10846.84092259124,0,0
2026-03-12T18:40:55.904,66669,-0.42497079467773435,0.8409633331298828,9.56363853149414,-154.258870051153,-36.051998706148936,-175.72662218478055,-1093.0,10403.0,-2870.0,-70.230915650137,-17.593042309153798,-174.01643844875025,2.1052022610229013,-9.114634544703952,-7.606067799365175,2.668842566665566,-1.2180701606868876,-2.347205006814543,0.6,0.3635817506600589,-0.6,9.609942844006792,236.59119033607166,10846.84092259124,0,0
2026-03-12T18:40:55.914,66679,-0.1927332336425781,0.919971987915039,10.563816275024413,-153.99816044706074,-34.84783880965702,-174.22849240999813,-1097.0,10405.0,-2874.0,-70.6196763155928,-17.656778600827696,-175.75872337285023,1.7405619638065046,-10.169640067718447,-7.351741897122227,2.6459544635090766,-1.299970062943611,-2.384411589398979,0.6,0.3502314679805921,-0.6,10.605550850869054,235.12841780236448,10850.221656722042,0,0
2026-03-12T18:40:55.924,66689,-0.40222587890625,0.910395181274414,9.913191973876952,-153.35830761129588,-31.98001170488446,-177.73021301719828,-1097.0,10405.0,-2874.0,-70.99225341730592,-17.6722235642832,-177.53602550302222,1.5167510512164193,-9.612863370606975,-7.672568412673827,2.621205144410922,-1.3751572161999357,-2.424220214422831,0.6,0.3361434159227742,-0.6,9.963030671170696,236.9166948131433,10850.221656722042,0,0
2026-03-12T18:40:55.934,66699,-0.11851298217773437,0.680551821899414,9.451111053466796,-153.8896430023922,-31.821610768493706,-175.19179597582243,-1099.0,10405.0,-2868.0,-71.38140325624713,-17.709834492074265,-179.28794346278045,0.9485421942838079,-9.162682916440955,-7.582643315517713,2.591230207858454,-1.44478228468388,-2.462545947864338,0.6,0.32137389748285944,-0.6,9.476322928973955,235.34400887326498,10848.836343129156,0,0
2026-03-12T18:40:55.944,66709,-0.4860229370117187,0.9163806854248047,9.66000514831543,-157.01847156220083,-30.39588190701421,-180.13645229775662,-1099.0,10405.0,-2868.0,-71.77602833708653,-17.700574858362188,178.910692014242,0.9367981008992314,-9.481576534403276,-7.905653666019709,2.5615892160344345,-1.516504079277494,-2.503478447256667,0.6,0.30590264783339444,-0.6,9.715537623899241,240.8897081551156,10848.836343129156,0,0
2026-03-12T18:40:55.954,66719,-0.08858546142578125,0.958279214477539,10.937311734008789,-158.69699383722474,-32.60421135445307,-176.3655361139361,-1101.0,10392.0,-2881.0,-72.18744503075716,-17.749283526893645,177.14703665310262,0.2923029269834614,-10.733997473485303,-7.516062380665152,2.526044561624705,-1.599486393202162,-2.539959484997369,0.6,0.2896178761174715,-0.6,10.97956895345906,239.48397186403537,10840.019649428685,0,0
2026-03-12T18:40:55.963,66729,-0.40462008056640625,0.8924386688232422,9.979631069946288,-153.84123433024678,-33.115874446096825,-185.4562932248212,-1101.0,10392.0,-2881.0,-72.54331740756524,-17.77454747473205,175.29247372085442,0.2325417497355091,-9.840006012789411,-7.890036715494206,2.4904444294352293,-1.672418156530105,-2.5795769543700264,0.6,0.27262080085761825,-0.6,10.027621875571787,243.22381301442178,10840.019649428685,0,0
2026-03-12T18:40:55.974,66739,-0.29388825378417965,0.8313865264892578,9.813234054565429,-152.17393558382702,-32.54660449040908,-183.6597897668355,-1088.0,10414.0,-2867.0,-72.88144207797686,-17.802874259038628,173.45587582318606,-0.18270318963990473,-9.66535739925337,-7.902805898972719,2.451288136575748,-1.742535654564799,-2.6187259381593573,0.6,0.2549402488676583,-0.6,9.852773034624457,240.72205240094658,10856.096397877092,0,0
2026-03-12T18:40:56.016,66749,-0.6350619903564453,0.9115922821044922,9.405621221923827,-149.76002073712084,-34.82287613117635,-186.16700658548865,-1088.0,10414.0,-2867.0,-73.18031944947947,-17.821165176057907,171.59420575733117,-0.19677956621857945,-9.338582533337014,-8.240709751758228,2.4125805357998584,-1.8083826576996966,-2.6606160401417855,0.6,0.23661956586837068,-0.6,9.47100917488162,241.45154970352021,10856.096397877092,0,0
2026-03-12T18:40:56.016,66759,-0.6242880828857421,0.833182177734375,9.157821350097656,-147.53921907815118,-16.437046040682247,-189.19364605864956,-1100.0,10408.0,-2878.0,-73.45789875580942,-17.657495234549213,169.70226929674467,-0.48664382468241474,-9.07519792127521,-8.272511639351784,2.371598386089739,-1.8706476173587618,-2.702191039187274,0.6,0.21769517660508828,-0.6,9.216811814940773,240.4833328064541,10854.462123937787,0,0
2026-03-12T18:40:56.016,66769,-0.2723404388427734,0.8044517578125,9.78629928588867,-145.01608155189908,-13.92208235742767,-191.97815437395758,-1100.0,10408.0,-2878.0,-73.71394988717597,-17.505934779114245,167.78248775300509,-1.2019862775599437,-9.581853485890136,-8.00768406876216,2.3241848454644276,-1.936969159934398,-2.7405338616767723,0.6,0.19812715952073853,-0.6,9.823083307101788,240.99605814756623,10854.462123937787,0,0
2026-03-12T18:40:56.016,66779,-0.4537012145996093,0.6757634185791015,8.735843307495117,-146.13479502774715,-16.248315768833454,-187.739902024041,-1100.0,10412.0,-2861.0,-73.98131855385716,-17.35892897157953,165.90508873276468,-1.1606104110603097,-8.558135522945337,-8.261088895492758,2.277890060233517,-1.9922122574363936,-2.7807975793722246,0.6,0.17802683190942822,-0.6,8.77367991683798,238.46521107935618,10853.804171809992,0,0
2026-03-12T18:40:56.025,66789,-0.33518823242187495,0.8313865264892578,9.618106619262695,-146.60401142552737,-14.468450507326777,-193.04070986211772,-1100.0,10412.0,-2861.0,-74.2415430145032,-17.21123140801951,163.9746816341435,-1.7946767593341546,-9.350314513677992,-8.174999463918386,2.2260441432505726,-2.054429671534576,-2.819609360401237,0.6,0.15732505265888838,-0.6,9.659789316909912,242.83078035992358,10853.804171809992,0,0
2026-03-12T18:40:56.034,66799,-0.13108254089355467,0.9816226806640624,11.085153686523437,-145.7556905114852,-16.430974466740633,-187.2774530731483,-1103.0,10401.0,-2862.0,-74.48770579545302,-17.10478523215187,162.10190710341203,-2.679072245746061,-10.635236424774542,-7.9156936110826255,2.166264619481215,-2.1283703052455865,-2.8552848020643826,0.6,0.1359053082568261,-0.6,11.129303570914281,237.88136259062375,10843.821005531214,0,0
2026-03-12T18:40:56.049,66809,-0.4291606475830078,0.9367313995361327,10.084377392578125,-144.65523527056638,-16.636496509401383,-190.05525682729643,-1103.0,10401.0,-2862.0,-74.71564017686038,-16.975686466994624,160.20135453513907,-2.5103205028033577,-9.697568810197891,-8.253665094428237,2.1090439932363836,-2.191965803447352,-2.8937541312135346,0.6,0.11387166457213022,-0.6,10.136878808205786,239.42203481505172,10843.821005531214,0,0
2026-03-12T18:40:56.055,66819,-0.9050082275390624,1.0767921966552734,9.603142858886718,-142.44281644892106,-17.94557678864927,-184.3708362811127,-1097.0,10416.0,-2873.0,-74.90200027128493,-16.81755957835308,158.35764617232795,-2.324609921345312,-9.354222651857727,-8.669292805477175,2.054510925612586,-2.2512254095164406,-2.935740353379282,0.6,0.09126805106648883,-0.6,9.705610444216173,233.6762823976263,10860.506157633723,0,0
2026-03-12T18:40:56.064,66829,-0.4914098907470703,0.872087954711914,9.472658868408203,-143.76739113300738,-16.26993064555733,-185.1411693786237,-1097.0,10416.0,-2873.0,-75.11567856569165,-16.68119747775113,156.5062344785417,-2.8884810528254783,-8.971003154472058,-8.42423662888741,1.9952417233580664,-2.305821409445244,-2.9746829788731337,0.6,0.06814162713506436,-0.6,9.525402202464221,234.97026619401572,10860.506157633723,0,0
2026-03-12T18:40:56.076,66839,-0.47165772705078124,0.7074865905761718,8.705915786743164,-144.8259998423668,-14.888336193912744,-187.5298758283338,-1107.0,10411.0,-2864.0,-75.3457904685238,-16.53126620596838,154.63093572025835,-2.8865411768252374,-8.150993759752993,-8.485609222372064,1.9368806669159668,-2.351521376837132,-3.013645985030401,0.6,0.04458178695332635,-0.6,8.747340622909093,237.41037701236752,10854.347792474682,0,0
2026-03-12T18:40:56.084,66849,-0.6482300994873047,0.9666589202880859,9.611522564697266,-145.79991985497747,-13.617269298399725,-189.7274857620671,-1107.0,10411.0,-2864.0,-75.56558643669,-16.359841583213914,152.7336608626377,-3.456346512324694,-8.961363199175562,-8.588603966000678,1.873782443765829,-2.4045179836964548,-3.0530390443200517,0.6,0.020516070509245435,-0.6,9.681735265010015,239.6655284066909,10854.347792474682,0,0
2026-03-12T18:40:56.102,66859,-0.42018239135742186,0.6967126831054687,8.74661721496582,-146.61592626657927,-16.527887754527747,-186.78928690110172,-1107.0,10403.0,-2880.0,-75.80795523633894,-16.23611859462693,150.86576799362666,-3.500407307396478,-7.952407930366859,-8.51373418630332,1.8111966951314864,-2.4467814320551216,-3.0911037403903383,0.6,-0.003947792067494475,-0.6,8.784376728598524,238.03285195463118,10850.91046871183,0,0
2026-03-12T18:40:56.108,66869,-0.2088940948486328,0.8283937744140625,10.06821653137207,-148.56665216525295,-17.285656734165528,-190.7261439490136,-1107.0,10403.0,-2880.0,-76.0636635322567,-16.14507163404741,148.95850655413653,-4.583731213111035,-8.879286706649626,-8.307806159564537,1.7388789922553702,-2.497540684634793,-3.126569074956194,0.6,-0.02889427571492856,-0.6,10.104397909373148,242.37843561254064,10850.91046871183,0,0
2026-03-12T18:40:56.115,66879,-0.23702596435546874,1.0342951171875,10.934917532348631,-151.8813199920327,-19.342804195432286,-184.9080524330925,-1098.0,10410.0,-2872.0,-76.33768964172154,-16.07487863382781,147.1094260298056,-5.344599695110442,-9.488401982770219,-8.356184195897866,1.6601515003747016,-2.553538333895558,-3.161978953161445,0.6,-0.054375229394830256,-0.6,10.986280951099058,240.06888030576633,10854.5883385783,0,0
2026-03-12T18:40:56.125,66889,-0.35673604736328124,0.8762778076171874,10.02392380065918,-154.1308143926701,-20.115379859797706,-190.11540823844513,-1098.0,10410.0,-2872.0,-76.63587254104397,-16.00143487495557,145.20827194742117,-5.067169351166969,-8.601378823147984,-8.497356727914685,1.5853376097600864,-2.599958840295132,-3.1982482326339827,0.6,-0.0802944429799838,-0.6,10.068474152771726,245.57036649791914,10854.5883385783,0,0
2026-03-12T18:40:56.134,66899,0.08319850769042968,0.6715735656738281,9.988609326171874,-152.5203492412565,-21.06614947101389,-184.58617557936952,-1095.0,10400.0,-2880.0,-76.93096341000972,-15.976057173691162,143.36241019162748,-5.606766219574598,-8.145174750327076,-8.24122668269794,1.5063308983508754,-2.6411894289814266,-3.2314505919690477,0.6,-0.10659963093252826,-0.6,10.011505846608767,240.37116258242747,10846.816353197835,0,0
2026-03-12T18:40:56.144,66909,-0.05566518859863281,0.7535749725341796,10.007762939453125,-153.43872130195598,-21.46085751333278,-188.45928153301995,-1095.0,10400.0,-2880.0,-77.2237774984654,-15.943038946709658,141.47781737629728,-5.822929179559294,-8.052496991286304,-8.400562918804455,1.4263800824569532,-2.6808886829108753,-3.265724377839736,0.6,-0.13327510924387537,-0.6,10.03624894593309,243.96907672065524,10846.816353197835,0,0
2026-03-12T18:40:56.155,66919,0.15023615417480468,0.7637503295898437,10.581174237060546,-153.1636235977995,-21.743988912266158,-186.66253901037837,-1099.0,10401.0,-2865.0,-77.51215568927594,-15.930241834926852,139.6111919861935,-6.588711550576231,-8.175112957163924,-8.282333122209291,1.340085572446923,-2.721200215295277,-3.2983194934259012,0.6,-0.16032662428543132,-0.6,10.609765958917457,242.43514620868442,10844.207071058723,0,0
2026-03-12T18:40:56.164,66929,-0.24839842224121092,0.8445546356201171,10.09993970336914,-152.51053370997553,-23.604469799284864,-185.72953588954812,-1099.0,10401.0,-2865.0,-77.78000301494089,-15.902732934360943,137.75389662729802,-6.313642187294935,-7.841925400757391,-8.612545875487687,1.257794913315364,-2.757625177263308,-3.3336782778980663,0.6,-0.18771497318200633,-0.6,10.138232406115558,241.47897297436452,10844.207071058723,0,0
2026-03-12T18:40:56.174,66939,-0.7212532501220703,0.8972270721435547,9.11652137145996,-151.90969101317748,-25.316112215342073,-184.87117301838427,-1092.0,10409.0,-2873.0,-78.02530116082296,-15.846027577002877,135.90518489711417,-5.638084294918951,-7.214041876938089,-9.028324960407273,1.183392859310682,-2.7873191120921987,-3.372602104589607,0.6,-0.2153725761386254,-0.6,9.188916398906084,240.61340439512554,10853.288626034046,0,0
2026-03-12T18:40:56.184,66949,-0.3477577911376953,0.8044517578125,9.597157354736327,-152.39691573212326,-26.890823238114706,-189.84147917691354,-1092.0,10409.0,-2873.0,-78.28415967693319,-15.842191962160248,134.00677010534503,-6.423877671029769,-7.1107462868652345,-8.784597988118202,1.1023667713613785,-2.8155501763364383,-3.408541363203727,0.6,-0.2432845498240878,-0.6,9.637090193804049,244.9239137266223,10853.288626034046,0,0
2026-03-12T18:40:56.203,66959,-0.5111620544433594,0.70868369140625,8.693346228027343,-148.8451624735534,-29.619557379065526,-184.09416084276046,-1105.0,10399.0,-2870.0,-78.50611522779415,-15.846002133504374,132.1658284969174,-5.898687670964118,-6.38793900479863,-8.947867785399957,1.0277291962319612,-2.836238122888658,-3.445549740441861,0.6,-0.2713752841219214,-0.6,8.73714987056564,238.58512239347704,10844.22085721238,0,0
2026-03-12T18:40:56.212,66969,-0.33698388366699217,0.7721300354003906,9.4618849609375,-151.49754947566913,-27.489992788740285,-188.64662797533964,-1105.0,10399.0,-2870.0,-78.7507957343728,-15.848594010193858,130.27936221716402,-6.7929446064974295,-6.571203436627851,-8.851558951491153,0.9454027539144821,-2.858420904896113,-3.481054350007421,0.6,-0.29965953367771164,-0.6,9.499316288209059,243.50514870762797,10844.22085721238,0,0
2026-03-12T18:40:56.215,66979,-0.8158242156982422,0.8212111694335937,8.458115914916991,-149.8577455176156,-30.57079336564106,-184.83489773731247,-1103.0,10400.0,-2860.0,-78.96244932228888,-15.829730862425567,128.4310132397909,-6.000563450269023,-6.046437586351397,-9.24672807727604,0.872116162620615,-2.8751020015482327,-3.5199188063184788,0.6,-0.32808214313950074,-0.6,8.536959749576791,239.90801720699108,10842.334112173448,0,0
2026-03-12T18:40:56.225,66989,-0.4016273284912109,0.8385691314697266,9.505579141235351,-151.46912587620636,-31.965129896389776,-188.52810591832747,-1103.0,10400.0,-2860.0,-79.19436092081702,-15.870990545873674,126.54573218060763,-7.241401037947423,-6.174404739881391,-8.994631142289347,0.7877066199575236,-2.892793358212841,-3.5557171409752515,0.6,-0.35665306664490753,-0.6,9.550944325538364,243.94161667117652,10842.334112173448,0,0
2026-03-12T18:40:56.234,66999,-0.7110778930664062,1.0582371337890624,9.937732540893554,-151.91159580610986,-35.727919504678596,-184.16585744486127,-1094.0,10409.0,-2876.0,-79.41159966867973,-15.923798736768667,124.70407360615901,-7.678531978217181,-6.411698697083602,-9.24603236472165,0.7002574806727214,-2.9125566900059217,-3.593454802653131,0.6,-0.38539285491142183,-0.6,10.019182883632404,241.39320665854012,10854.284545745058,0,0
2026-03-12T18:40:56.244,67009,-0.4896142395019531,0.8714894042968749,9.491812481689452,-152.07866814162108,-37.90968594430431,-186.47258884927237,-1094.0,10409.0,-2876.0,-79.6397121167205,-16.01424446573702,122.83934771766629,-7.594301646557124,-5.74070115007537,-9.124995483765039,0.6149497472440429,-2.9254142459840753,-3.6294341861284196,0.6,-0.41423235037389133,-0.6,9.54430301661051,243.5920605936796,10854.284545745058,0,0
2026-03-12T18:40:56.255,67019,-0.5351040710449219,0.8547299926757812,9.367912545776367,-152.23237469029138,-39.916911068759966,-192.5947817413306,-1097.0,10396.0,-2877.0,-79.86640668586645,-16.118376234252164,120.91339990025298,-7.661620921935034,-5.44808918839241,-9.180092551371576,0.5302585349543223,-2.9351967107999792,-3.665416584967503,0.6,-0.4431407331644093,-0.6,9.422031903604585,248.71832591730615,10842.386914328412,0,0
2026-03-12T18:40:56.265,67029,-0.21308394775390624,0.7535749725341796,9.654618194580078,-154.61378471506808,-38.643558183259174,-198.22719920202414,-1097.0,10396.0,-2877.0,-80.12441021287404,-16.23833185931153,118.93112790823274,-8.215115530905562,-5.066421705601234,-8.989226972416414,0.4413857689505877,-2.941073013938152,-3.698979221871292,0.6,-0.472078911840487,-0.6,9.686327089828062,254.3477334604327,10842.386914328412,0,0
