recv_time,timestamp,ax,ay,az,gx,gy,gz,mx,my,mz,roll,pitch,yaw,ax_w,ay_w,az_w,vx,vy,vz,x,y,z,a_norm,g_norm,m_norm,stationary,bias_ready
2026-03-12T18:37:10.019,3367468,-0.17298106994628906,0.8289923248291016,9.300276348876952,-175.0,-17.0,-157.0,1199.0,9737.0,-2862.0,5.0936726626490705,1.0613465232001456,0.0,0.0,0.0,-0.4678978943562626,0.0,0.0,-0.004608794259409186,0.0,0.0,-4.6041854651497775e-05,9.338752105643737,235.71805191796406,10219.482080810161,0,0
2026-03-12T18:37:10.020,3367478,-0.45968671875,1.1450269439697265,10.04906291809082,-170.44,-17.16,-156.44,1199.0,9737.0,-2862.0,3.435940398504965,0.9154349847975172,-1.5644,-0.2833969951239693,0.5486442385840123,0.29902858959422396,-0.002791460401971098,0.005404145750052522,-0.0015942307380149422,-2.7886689415691267e-05,5.398741604302469e-05,-6.192217786961554e-05,10.124527846450905,231.9864927102438,10219.482080810161,0,0
2026-03-12T18:37:10.030,3367488,-0.35613749694824215,0.9822212310791015,9.566032733154296,-166.2448,-17.307199999999998,-155.9248,1208.0,9725.0,-2862.0,1.834827094680473,0.7630419551509048,-3.123648,-0.19121556884763358,0.6868695382280898,-0.2101807764272401,-0.004633061849090721,0.012088748515348418,-0.003640597924753033,-7.414309059869188e-05,0.00017470002629531238,-9.822982896002872e-05,9.622919240817444,228.5813114712574,10209.110294242098,0,0
2026-03-12T18:37:10.040,3367498,-0.46028526916503903,0.9109937316894531,8.788515744018554,-164.22521600000002,-15.522623999999999,-155.770816,1208.0,9725.0,-2862.0,0.2784561566029966,0.6434298558921144,-4.68135616,-0.28944573038517707,0.8948793620420699,-1.0091962099762775,-0.007414606365648354,0.02072197900373258,-0.013526571624148071,-0.00014814086510092026,0.00038153789651630557,-0.00023326204965630793,8.84758617313501,226.88195288166463,10209.110294242098,0,0
2026-03-12T18:37:10.053,3367508,-0.3178302703857422,1.004966146850586,9.680954412841796,-164.92719872000004,-15.880814079999999,-155.62915071999998,1188.0,9729.0,-2858.0,-1.261355106460593,0.5054073179154854,-6.2376476672,0.0,1.2358966886963976,-0.14773591165645605,-0.007303387270163629,0.03258473170233611,-0.014778871779601943,-0.000220953563064754,0.000706677828326127,-0.000380669716684875,9.738164682352123,227.318309177458,10209.45390312332,0,0
2026-03-12T18:37:10.060,3367518,0.007781155395507812,0.8996212738037109,9.941323843383788,-165.01302282240005,-14.9303489536,-158.4588186624,1188.0,9729.0,-2858.0,-2.7902512164649567,0.3500923204888185,-7.822235853824,0.2557085545283415,1.360352607983302,0.0,-0.00467510719900701,0.045495433915436596,-0.014557188702907913,-0.0002674369304197693,0.0011604705353130127,-0.0005257153621102402,9.98194864451278,229.2627536970311,10209.45390312332,0,0
2026-03-12T18:37:10.070,3367528,-0.30466216125488277,1.0109516510009764,9.69771382446289,-164.45198099660803,-15.735921037312,-158.022113169408,1197.0,9739.0,-2870.0,-4.278978734667999,0.216687810762617,-9.40245698551808,0.0,1.752286089666424,-0.21031423607450428,-0.004604980591021905,0.06207302038991932,-0.01641042609769816,-0.00031317324959365833,0.0017794195384729938,-0.0006891298034641345,9.755024125769282,228.61115789726105,10223.396206740694,0,0
2026-03-12T18:37:10.080,3367538,-0.46507367248535153,1.2240355987548828,10.472836611938476,-160.17582251687938,-16.31704735432704,-158.58034411585535,1197.0,9739.0,-2870.0,-5.692531041581423,0.0905975199266425,-10.988260426676634,0.0,2.3009670181292665,0.4938502836517067,-0.004535905882156576,0.0838064502126438,-0.011299844412263376,-0.00035817377610680885,0.002614866556558832,-0.0008013261193391815,10.554376503053945,225.98731312448777,10223.396206740694,0,0
2026-03-12T18:37:10.090,3367548,-0.6637924102783203,1.0743979949951172,9.208698135375975,-153.76175671552903,-19.331683565980875,-157.65391658658692,1194.0,9741.0,-2874.0,-7.021875411263853,-0.0397497964128047,-12.564799592542503,-0.17712018768530638,2.2853512630209254,-0.7988272437623642,-0.006212501142624495,0.10506006340021025,-0.018998795097138713,-0.0004198784887455207,0.0036618017233703737,-0.000990322756240258,9.294894984025888,221.06820041071322,10226.074173405941,0,0
2026-03-12T18:37:10.100,3367558,-0.488417138671875,0.9834183319091796,9.251793765258789,-149.4608161782867,-19.625148880702405,-156.96160325965997,1194.0,9741.0,-2874.0,-8.297724339815467,-0.18738575378404496,-14.134415625139102,0.0,2.364898443194555,-0.795277887261383,-0.006119313625485128,0.12677841211467347,-0.026547300360206253,-0.00048059055337537165,0.0049246562586725915,-0.0012545399640824784,9.316724252212515,217.6249685562579,10226.074173405941,0,0
2026-03-12T18:37:10.110,3367568,-0.4171896392822265,1.016338604736328,9.718663088989258,-145.50395088402377,-19.895136970246213,-156.32467499888716,1190.0,9730.0,-2864.0,-9.516921466792555,-0.34387169128499573,-15.697662375127974,0.24992328700721161,2.640071217846171,-0.39246039562109836,-0.0035657795440818163,0.15088143742873816,-0.030014825751670977,-0.0005157321004673735,0.006427037162327013,-0.001553133533377589,9.780562539643824,214.48687654827032,10212.320794021309,0,0
2026-03-12T18:37:10.120,3367578,-0.6985083343505859,0.9349357482910156,8.476670977783202,-146.18363481330186,-21.983526012626513,-153.0987009989762,1190.0,9730.0,-2864.0,-10.71966634315063,-0.48501432073853984,-17.228649385117738,0.0,2.6106767519637084,-1.6580120459819163,-0.003512292850920589,0.17433338187414962,-0.04589602201831779,-0.0005503041739476029,0.00816220061008744,-0.002010081659807206,8.556633076869765,212.81950744880166,10212.320794021309,0,0
2026-03-12T18:37:10.130,3367588,-0.18914193115234373,0.7912836486816406,9.159018450927734,-149.3689440282377,-23.58484393161639,-152.2908049190581,1203.0,9721.0,-2868.0,-11.956089237752208,-0.6923700426025127,-18.751557434308317,0.5790583777932057,2.624686112484789,-1.0131730043365312,0.0022441165631062955,0.19757153935401256,-0.05518733578075786,-0.0005273351453082233,0.010127778087623938,-0.00255939306259717,9.195081482359232,214.61550635097203,10206.393780371203,0,0
2026-03-12T18:37:10.140,3367598,0.07841010437011718,0.948702407836914,10.62367131652832,-150.93942850597867,-24.498056417087078,-150.98754052553346,1203.0,9721.0,-2868.0,-13.18695592368341,-0.9296083338685633,-20.261432839563653,1.0785818255343913,3.1698835407538204,0.32039676736581413,0.012834485796173455,0.2258313191401275,-0.05120361758549322,-0.00039859129705914226,0.012373705187746187,-0.0030683578092136504,10.666235354834875,214.89556356489967,10206.393780371203,0,0
2026-03-12T18:37:10.157,3367608,-0.5686228942871093,1.1887211242675781,10.191517916870117,-149.74427422550036,-26.938211903720113,-148.6685372834908,1178.0,9722.0,-2877.0,-14.364340378955106,-1.133425962560757,-21.748118212398563,0.6594973693230151,3.698859168961707,-0.2417698948906839,0.01913801759706255,0.2588776121672984,-0.05281699678638406,-0.00020700390996742824,0.01494751882810975,-0.0035929312493004134,10.276352823695381,212.7236444354606,10206.963162469041,0,0
2026-03-12T18:37:10.167,3367618,-0.011372457885742187,0.8068459594726562,9.537302313232422,-152.24473228746032,-25.503154951422506,-146.61505430081155,1178.0,9722.0,-2877.0,-15.575951141027527,-1.3666094891685066,-23.21426875540668,1.1087250970663525,3.156674742867401,-0.8390751675281525,0.029771889539210183,0.2860876942020328,-0.060289632234740605,9.06242704392489e-05,0.01779058737435995,-0.004191631744076172,9.571377390381398,212.8963211739147,10206.963162469041,0,0
2026-03-12T18:37:10.170,3367628,-0.42497079467773435,1.206079086303711,10.479420666503906,-153.6651537044635,-24.742902555308703,-145.20584995674662,1192.0,9741.0,-2870.0,-16.757434145611725,-1.555222565973509,-24.666327254974146,1.1179425106528234,4.082227808255194,-0.13508833144405585,0.04033704492605234,0.322006322700316,-0.060715907815943444,0.0004935007249800725,0.020989639950761748,-0.0047939920314133706,10.557153235806393,212.86129181121473,10224.717355506704,0,0
2026-03-12T18:37:10.180,3367638,-0.814627114868164,1.177947216796875,9.329006768798827,-154.65194140810644,-25.643470350884005,-145.8293819602069,1192.0,9741.0,-2870.0,-17.921446887145482,-1.7102113577188978,-26.124621074576215,0.7983229937882351,4.0540985625386945,-1.3208672124816356,0.04759547074097567,0.35710909870081736,-0.0728157112416484,0.0009684859769574394,0.02453617020683215,-0.005516626994686025,9.438301980448191,214.10515919946667,10224.717355506704,0,0
2026-03-12T18:37:10.190,3367648,-0.2567781280517578,1.016338604736328,9.867103591918944,-150.7597860954579,-25.991992722813283,-148.80303140339032,1195.0,9724.0,-2857.0,-19.04939584166585,-1.918336306099351,-27.612651388610118,1.4437056246671003,3.963421201849864,-0.825245939040796,0.061102039082831974,0.39079216105852627,-0.07985214807257551,0.0015779268614179733,0.0284156477256,-0.006308833326936368,9.922631327434416,213.4161168798865,10205.226602089735,0,0
2026-03-12T18:37:10.205,3367658,-0.46028526916503903,1.1809399688720703,10.242394702148436,-147.17900320782127,-26.31263330498822,-151.53878889111908,1195.0,9724.0,-2857.0,-20.114711356689952,-2.110397930736657,-29.12803927752131,1.5562155415262071,4.434594355895934,-0.618304280521631,0.07551423158062263,0.4286110330482233,-0.08474466301462494,0.002330736108046976,0.032669056298026154,-0.007149123677125535,10.320519898420246,212.88029076285525,10205.226602089735,0,0
2026-03-12T18:37:10.210,3367668,-0.6548141540527344,1.1186907257080076,9.478045822143555,-141.8046829511956,-25.487622640589166,-156.21568577982956,1191.0,9736.0,-2857.0,-21.108794925374383,-2.2709203254306747,-30.690196135319606,1.4246371313099213,4.337420115242601,-1.400057413775322,0.08841419385031601,0.4649054556876396,-0.09726405859509248,0.003211663168503586,0.03728079274404765,-0.008113642498813384,9.566274255047562,212.51241728054532,10216.194301206297,0,0
2026-03-12T18:37:10.223,3367678,0.0652419952392578,0.9163806854248047,10.252570059204102,-140.54030831509994,-24.80861282934203,-157.07843091744317,1191.0,9736.0,-2857.0,-22.099871671787692,-2.4866685741139207,-32.26098044449404,2.231358045202083,4.156983442478626,-0.6578941922127282,0.10906685768780179,0.4988781607607395,-0.10228535550946145,0.004298029413636223,0.04222730477730339,-0.00912735955785409,10.293648667865579,212.22789399912895,10216.194301206297,0,0
2026-03-12T18:37:10.230,3367688,-0.39444472351074217,1.0947487091064452,10.050858569335936,-139.45708364989196,-24.263923802994668,-153.5521564440477,1198.0,9735.0,-2855.0,-23.048782818484515,-2.6548550136144193,-33.79650200893452,2.0822564727934076,4.553655382518212,-1.0144801884254857,0.12794108107949984,0.5362484938671328,-0.11074370503281057,0.00557186278420679,0.047542199926258744,-0.010224561811574015,10.11799482885761,208.84271815667358,10215.500672996894,0,0
2026-03-12T18:37:10.240,3367698,-0.6703764648437499,1.2611457244873046,10.230423693847655,-138.7805169579006,-21.282809898755097,-150.4679839285239,1198.0,9735.0,-2855.0,-23.9646247590911,-2.7688526258606156,-35.301181848219755,2.1723738165753543,4.965397249776004,-1.0130680079092205,0.14741984695657456,0.5771139293694194,-0.11906126933522423,0.007039015192518763,0.05326002588073299,-0.01140375933042133,10.329639979140053,205.79991271087366,10215.500672996894,0,0
2026-03-12T18:37:10.250,3367708,-0.31184476623535157,0.9929951385498046,9.83238766784668,-140.79807560126855,-19.10018510685469,-150.51054521424197,1198.0,9731.0,-2859.0,-24.905513269780393,-2.888345649078614,-36.80628730036217,2.428002649601898,4.479586968860375,-1.3333249456793599,0.16912437535080466,0.6125811520721528,-0.13040860101013757,0.008721528687080784,0.059326451564053063,-0.012695137495182184,9.887321869658912,206.98391093228727,10212.807939053784,0,0
2026-03-12T18:37:10.260,3367718,-0.8708908538818358,1.2294225524902342,9.57620809020996,-142.89422955316707,-16.852170298306316,-152.2297015971026,1198.0,9731.0,-2859.0,-25.829701924438098,-2.9336999394832706,-38.3285843163332,2.266985097895587,4.93712232720029,-1.7779954569816585,0.18891731293481412,0.6520230897139934,-0.14596572724625484,0.010600091114612496,0.0657808357787318,-0.014140639972877088,9.694002892456208,209.46751187642255,10212.807939053784,0,0
2026-03-12T18:37:10.270,3367728,-0.22864625854492185,0.881664761352539,9.459490759277344,-141.9426911889137,-15.983996674441812,-156.3713254693344,1212.0,9727.0,-2866.0,-26.76051950098858,-3.0264569194463933,-39.892297571026546,2.7352942382476884,4.290923144000486,-1.7805848812571377,0.21302620148753162,0.6845083363366882,-0.16131500241794383,0.012717622776358324,0.07255329322295657,-0.015738036207059467,9.503240357257669,211.79047939101608,10212.611272343622,0,0
2026-03-12T18:37:10.280,3367738,-0.4070142822265625,1.2054805358886718,10.675745202636719,-141.0672758938006,-15.185276940486467,-159.54161943178764,1212.0,9727.0,-2866.0,-27.65198809610322,-3.0980913765966727,-41.487713765344424,3.324956574784533,5.099144616547115,-0.9447220192895127,0.2425816307268463,0.7244672857646269,-0.16820078927167637,0.01512829564454316,0.07971816811452224,-0.017402624055676455,10.751296646449848,213.50432617343913,10212.611272343622,0,0
2026-03-12T18:37:10.290,3367748,-0.5847837554931641,0.996586441040039,9.172186560058593,-140.26189382229654,-14.85045478524755,-162.45828987724462,1192.0,9721.0,-2867.0,-28.525772360107034,-3.1434959429641873,-43.11229666411687,2.862175066675145,4.520067841271815,-2.2673460887840236,0.26713533067269374,0.7581229447146849,-0.18801113640712383,0.01778184930231883,0.08721209816410744,-0.019263452684327945,9.244682951171068,215.14327973651584,10204.822095460557,0,0
2026-03-12T18:37:10.306,3367758,-0.07541735229492187,0.8888473663330078,9.882067352294921,-139.44094231651283,-16.382418402427746,-161.46162668706506,1192.0,9721.0,-2867.0,-29.39428406191644,-3.2511778267867415,-44.72691293098752,3.575429614074533,4.375381554266873,-1.6504663395900963,0.29834628241123745,0.7898486088534934,-0.2014480628059794,0.020744546814304772,0.09501547366838974,-0.02125665537907535,9.922247354957316,213.96732675635883,10204.822095460557,0,0
2026-03-12T18:37:10.310,3367768,-0.26755203552246093,1.0330980163574217,10.021529598999022,-140.6856669311918,-14.991824930233527,-158.94469655209988,1193.0,9729.0,-2857.0,-30.25083799173891,-3.327260950717146,-46.316359896508516,3.7857767589792175,4.638054410842367,-1.699475601976614,0.33116098925101417,0.8236857156674883,-0.21516617654335934,0.0240321005501081,0.10314907849423956,-0.023384908827364437,10.078190864769695,212.79245347674367,10209.757049019336,0,0
2026-03-12T18:37:10.320,3367778,-0.4447229583740234,0.8643067993164062,8.719083895874023,-142.15081357669646,-14.512478935814844,-161.3491208279319,1193.0,9729.0,-2857.0,-31.112343969501726,-3.376714990206309,-47.929851104787836,3.3192605071345547,4.150971678693781,-2.826737927144193,0.3588882904075243,0.8522175009676097,-0.23978205247757925,0.02759336247072916,0.11155958225041174,-0.02575694662278809,8.773096872617973,215.52495131034306,10209.757049019336,0,0
2026-03-12T18:37:10.330,3367788,-0.010175357055664061,0.8134300140380859,9.434351641845703,-139.33874849056076,-15.511480620949655,-159.48119116169735,1195.0,9744.0,-2872.0,-31.944227635394842,-3.4779288364045673,-49.52466301640481,4.017245815725033,4.045535711128494,-2.24595296244786,0.393074837336303,0.8792827652077112,-0.25830795837052695,0.031492586733248104,0.12023205749258636,-0.028311686180286868,9.469359156121703,212.3443976099292,10228.486936003781,0,0
2026-03-12T18:37:10.340,3367798,-0.5069722015380859,1.265335577392578,10.472836611938476,-138.8316486113159,-14.750562171273684,-161.76269586876157,1195.0,9744.0,-2872.0,-32.72921908889414,-3.52978120271343,-51.142289975092424,4.606847527951384,5.003925592453179,-1.7272882581105407,0.4325561629265796,0.9153821908152594,-0.2714471283373579,0.035782330214151385,0.12925649352133822,-0.030995131306196785,10.561174254641704,213.67960949803785,10228.486936003781,0,0
2026-03-12T18:37:10.350,3367808,-0.5279214660644531,1.1085153686523437,9.70968483276367,-136.20511672241062,-15.410517197571789,-160.90168019926062,1206.0,9744.0,-2864.0,-33.482205782277994,-3.5822466432534954,-52.751306777085034,4.397866215954807,4.59363047758014,-2.3673745829663515,0.4693868027098358,0.9468987181571948,-0.2906940610545161,0.04043572204300849,0.13858675522220726,-0.033868169844825206,9.787006025770646,211.3732919566881,10227.534795834234,0,0
2026-03-12T18:37:10.360,3367818,-0.4225765930175781,0.8726865051269531,8.647257846069335,-134.02870738461777,-18.817675821766045,-160.66954578331976,1206.0,9744.0,-2864.0,-34.21371326864513,-3.67211300205462,-54.35800223491823,4.04355270990313,3.943182475545542,-3.1872682753681367,0.5021749948617341,0.9715355847689604,-0.3177282426510745,0.04541201451963421,0.14815380895882696,-0.037008406819064615,8.701449360285027,210.0773721007164,10227.534795834234,0,0
2026-03-12T18:37:10.370,3367828,-0.4860229370117187,1.0785878479003905,9.642048635864258,-132.02641079384836,-21.952261756024757,-160.45598212065417,1189.0,9745.0,-2860.0,-34.9052266283574,-3.7902442867901196,-55.962562056124774,4.763906489611297,4.384602554255558,-2.5644730250313055,0.5415668488614794,1.0001508861568433,-0.3382223783078668,0.050776855325240754,0.15799716250257498,-0.04035023997154114,9.714353912500393,208.9473549524251,10225.37754804193,0,0
2026-03-12T18:37:10.380,3367838,-0.020350714111328123,0.891241567993164,9.89583401184082,-133.5442979303405,-21.31608081554278,-161.05950355100185,1189.0,9745.0,-2860.0,-35.61986498308419,-3.941593720050338,-57.57315709163479,5.187996427195015,3.9327038858394716,-2.3005997942190506,0.5845451109364281,1.0238857561400094,-0.3558099506063064,0.05656568412817043,0.1680677840439111,-0.0438644311381266,9.935907430828316,210.30601155254092,10225.37754804193,0,0
2026-03-12T18:37:10.390,3367848,-0.3591302490234375,1.0684124908447266,10.02990930480957,-133.66075409591323,-22.810794350299357,-159.77474326692172,1181.0,9743.0,-2861.0,-36.310919898849406,-4.076569246844037,-59.17090452430401,5.384451837351999,4.247383366638693,-2.4014509211703228,0.6288137848702989,1.0503641959593004,-0.3741270929207395,0.06279096815489654,0.1783928545775006,-0.047558096365266665,10.093045152433545,209.55547740488814,10222.8240227444,0,0
2026-03-12T18:37:10.401,3367858,-0.3363853332519531,0.8176198669433593,8.828618621826172,-134.16789376824016,-22.265930802275406,-159.23276380556797,1181.0,9743.0,-2861.0,-37.008443658106216,-4.202149291384731,-60.763232162359685,4.808422491154141,3.6265327886207093,-3.2910151737896447,0.6667445396351127,1.070330080987825,-0.4009316859887564,0.06938895513769643,0.18890705923199147,-0.05151584581192908,8.872776572691512,209.40837724851718,10222.8240227444,0,0
2026-03-12T18:37:10.411,3367868,-0.5470750793457031,1.0881646545410155,9.6779616607666,-136.55446226678094,-23.44465633809337,-156.25414270112253,1191.0,9721.0,-2854.0,-37.70214980113799,-4.321819640239471,-62.32577358937091,5.5059409186957255,4.098458427506749,-2.876023153679915,0.7109768895897389,1.094644945283949,-0.4232465387626722,0.07642222530956022,0.1996536551761461,-0.055692562888356244,9.754298302035965,208.83517468818266,10201.060631130471,0,0
2026-03-12T18:37:10.422,3367878,0.06763619689941405,0.9068038787841797,10.351330877685546,-136.19010528543848,-22.849083831045903,-157.9938112850327,1191.0,9721.0,-2854.0,-38.402992883433186,-4.487649927129675,-63.90571170222124,6.182776622042854,3.6107378292070798,-2.275862229806992,0.7612125859730149,1.1137910387223797,-0.43931508364483096,0.08395031681812108,0.21058077399780656,-0.06002562801107975,10.391194294643675,209.8377225713897,10201.060631130471,0,0
2026-03-12T18:37:10.431,3367888,-0.6368576416015624,1.121084927368164,9.572616787719726,-138.8148968626034,-25.261157124562228,-159.9143063822301,1195.0,9730.0,-2870.0,-39.09407929880031,-4.612450581847546,-65.50485476604354,5.797589991082073,3.933158684628308,-3.1571669906668847,0.8069006585955781,1.1358257861851329,-0.4638234522482273,0.09192730408067279,0.22171709282779822,-0.06459919867102847,9.659058506633652,213.2610771705817,10214.588831666206,0,0
2026-03-12T18:37:10.456,3367898,-0.10654197387695312,1.055244381713867,10.634445223999023,-140.58970511359513,-28.44026455459725,-160.1611618716517,1195.0,9730.0,-2870.0,-39.807474001323875,-4.814832462719674,-67.10646638476005,6.732775134022598,3.6411655933573828,-2.3482339995338632,0.861114983786767,1.1546538804869262,-0.4799962053599124,0.10043791546462193,0.2330303680010348,-0.06932976156390297,10.687203428379751,215.00211999871195,10214.588831666206,0,0
2026-03-12T18:37:10.456,3367908,-0.6488286499023437,1.0295067138671874,9.118915573120116,-142.2225287045075,-27.36504339022947,-159.0282689219196,1206.0,9718.0,-2858.0,-40.514634289648875,-4.951492028063312,-68.69674907397925,5.8171812203936515,3.542509619957391,-3.622273542980821,0.9054974940508429,1.1722277920362025,-0.5084756566778749,0.10938339751472523,0.24450789327547545,-0.07434010361255103,9.19975455762404,215.09552200628443,10201.084452155075,0,0
2026-03-12T18:37:10.464,3367918,0.0430956298828125,0.9612719665527343,10.448296044921875,-141.88472640814692,-26.375839919011113,-157.98600740816605,1206.0,9718.0,-2858.0,-41.22563076288404,-5.140551623689056,-70.27660914806091,6.958330764930167,3.1367386932457584,-2.6069767709258835,0.9604545896746424,1.1855412512841301,-0.5265272430213267,0.11886895546806017,0.2561069424825284,-0.07952577066672153,10.492511199390032,213.977893849157,10201.084452155075,0,0
2026-03-12T18:37:10.471,3367928,-0.35793314819335936,1.016338604736328,9.816825357055663,-139.01394829549517,-29.225772725490224,-155.26712681551277,1207.0,9741.0,-2863.0,-41.8878718512358,-5.3201613802149605,-71.82928041621604,6.643638892523618,3.202616638401688,-3.238817075650883,1.0114876139208804,1.1993039064031248,-0.5505316825711679,0.1288548477756617,0.26783188156501314,-0.08494605640494078,9.875784545492275,210.44453968124031,10224.51460950592,0,0
2026-03-12T18:37:10.480,3367938,-0.8469488372802734,1.1324573852539062,9.181763366699219,-140.05283243185556,-30.327710907451003,-154.84575667027175,1207.0,9741.0,-2863.0,-42.533605894341484,-5.460625224391707,-73.37773798291876,6.342789195219267,3.3693255867016645,-3.914177607170865,1.058791773284977,1.2145022048360894,-0.5808283567632334,0.13930332274300297,0.27969692670976065,-0.09066358563260055,9.290024789226685,210.97813697125193,10224.51460950592,0,0
2026-03-12T18:37:10.490,3367948,-0.2597708801269531,1.0097545501708984,9.944915145874022,-143.40860583730714,-27.581494034854924,-151.09809613665,1196.0,9720.0,-2862.0,-43.22121190833637,-5.628064095037886,-74.88871894428526,7.050334337613118,2.8375220378116808,-3.3082135085665607,1.1123556899111917,1.224234263835993,-0.6047018344711655,0.15027645276247276,0.29164733007877247,-0.09661389337333488,9.999421104263352,210.1366262637601,10202.933891778384,0,0
2026-03-12T18:37:10.502,3367958,-0.27892449340820313,0.8026561065673827,8.929773641967772,-144.97591737032255,-21.77497451206653,-153.250248445718,1196.0,9720.0,-2862.0,-43.92386276466352,-5.731398249943073,-76.42122142874244,6.3805057195219765,2.430191859969275,-3.9888989498001255,1.1585183358998152,1.2298081396991505,-0.6349219616096293,0.16169977448534945,0.3036414660642882,-0.10286014987644174,8.970112206389356,212.07971327084076,10202.933891778384,0,0
2026-03-12T18:37:10.516,3367968,-0.2932897033691406,0.949300958251953,9.610924014282226,-146.33784398069673,-19.952976551101212,-149.79022857006055,1182.0,9738.0,-2879.0,-44.62181780084568,-5.815872306113976,-77.91912371444305,7.070139855478424,2.4514035588816614,-3.6943022854777734,1.2107814384377804,1.2355073426586476,-0.6617870096974409,0.17363378128085752,0.3156805429513838,-0.10936854195344273,9.662145288068649,210.35683594606218,10223.228893065048,0,0
2026-03-12T18:37:10.520,3367978,-0.5620388397216797,1.102529864501953,9.743203656005859,-146.070816462241,-19.316738427013117,-150.6070102844557,1182.0,9738.0,-2879.0,-45.29444714058156,-5.869695543058784,-79.4251938172876,7.3530749407502585,2.5730183771636446,-3.825567941679023,1.2650475050276038,1.2423189635338296,-0.6895420487775176,0.18609797207480241,0.32777562885413536,-0.11614769847877669,9.821480399709625,210.69478245135898,10223.228893065048,0,0
2026-03-12T18:37:10.530,3367988,-0.3537432952880859,1.0510545288085937,10.066420880126952,-145.3451511452617,-16.41139935285207,-152.55844946169924,1192.0,9743.0,-2864.0,-45.95726869790661,-5.913276510987823,-80.9507783119046,7.710995945149325,2.2356261211278334,-3.6337093184635423,1.3220251025119105,1.2457050963739313,-0.7149909548327207,0.1991189048768216,0.33989244713805683,-0.1231743104190768,10.127323401439602,211.349538661232,10224.940537724413,0,0
2026-03-12T18:37:10.540,3367998,-0.5051765502929687,0.9121908325195311,8.93216784362793,-144.67753905364077,-13.738487404623905,-154.3537735047633,1192.0,9743.0,-2864.0,-46.605517340658956,-5.911596744228831,-82.49431604695224,6.916910028683492,1.9867909251413627,-4.414068491713539,1.3703262897567643,1.2465894105409647,-0.7477446651536083,0.21260934560661487,0.352005982902223,-0.13052110531354227,8.992825910059608,212.0033578459184,10224.940537724413,0,0
2026-03-12T18:37:10.550,3368008,-0.4848258361816406,1.0989385620117187,9.85692823486328,-145.58333592934952,-12.959408412253994,-153.28547162438224,1202.0,9725.0,-2863.0,-47.24500680955533,-5.908594165484132,-84.02717076319605,7.827055441409961,1.9128650405173877,-4.003210783844487,1.4268678915083008,1.2467322900319466,-0.7759601213971724,0.2266511464971762,0.36410883249674,-0.1381424258209865,9.929841704768036,211.79917322270813,10208.682481104013,0,0
2026-03-12T18:37:10.567,3368018,-0.3094505645751953,1.1079168182373047,10.28549033203125,-143.21666905500157,-14.002655739273674,-156.22263389443165,1202.0,9725.0,-2863.0,-47.85479597598761,-5.932190669780392,-85.58939710214037,8.272785114397237,1.5770698361568924,-3.790968169878922,1.4869518065124891,1.2435654435676127,-0.8016617560495223,0.2412791438977388,0.3761679424454837,-0.14601288433810025,10.34961596864141,212.39726929477243,10208.682481104013,0,0
2026-03-12T18:37:10.574,3368028,-0.39803602600097654,1.0570400329589844,9.861716638183593,-144.55933553060143,-14.16244328013178,-158.2048231828771,1200.0,9715.0,-2859.0,-48.469114101618835,-5.948235580410075,-87.17144533396913,8.024532797933013,1.3891637346878163,-4.131588867798404,1.543689177474442,1.2385952247007737,-0.8303329800565937,0.25645931963681073,0.3881653407977989,-0.15416189792452753,9.926188662376898,214.77137231725592,10197.79907627131,0,0
2026-03-12T18:37:10.580,3368038,-0.7410054138183594,1.0193313568115234,8.781931689453124,-148.03458868815332,-12.78944781772124,-159.06843732824692,1200.0,9715.0,-2859.0,-49.100906447438135,-5.9131218026457075,-88.7621297072516,7.2766205081709545,1.4075597599563223,-4.930173901552893,1.592208551817809,1.233880759965832,-0.8664401982860408,0.2721090237498338,0.40010364424905975,-0.16266347360748057,8.87189098425518,217.67080001140107,10197.79907627131,0,0
2026-03-12T18:37:10.590,3368048,-0.47884033203125,1.0480617767333984,9.606734161376952,-150.67182159310104,-14.806291992303539,-157.70296234198716,1195.0,9724.0,-2862.0,-49.755118046755776,-5.927716463415095,-90.33915933067148,8.015816337496437,0.9871987662057298,-4.478499304090266,1.6472812144648818,1.2250964564134708,-0.8975568134570393,0.28829325405858813,0.4119422542043813,-0.1714674027003089,9.67559108265724,218.61255324473672,10206.627503735011,0,0
2026-03-12T18:37:10.600,3368058,-0.07302315063476562,0.852934341430664,9.476848721313477,-150.37807586565296,-15.781788632919255,-158.52672535462818,1195.0,9724.0,-2862.0,-50.41287223960687,-5.987655798369839,-91.92442658421776,7.863793127102133,0.37015666385735635,-4.461817658726371,1.7000303585498646,1.2103660527062636,-0.9280423651936385,0.3049882640864427,0.4236218688167125,-0.18056707852589304,9.515434359921846,219.07385331246616,10206.627503735011,0,0
2026-03-12T18:37:10.611,3368068,-0.35134909362792965,1.1103110198974608,10.052055670166014,-150.74782979640074,-16.919245542285715,-158.24458732625794,1196.0,9723.0,-2874.0,-51.04699850570167,-6.034649269760647,-93.50687245748034,8.555647794662685,0.4004176187268577,-4.417715366242387,1.7588030339490441,1.1961546754601293,-0.9576362260732214,0.3222537181315072,0.4351478321557425,-0.18995329734583863,10.119291474338292,219.20884671039724,10209.163579843356,0,0
2026-03-12T18:37:10.620,3368078,-0.6332663391113281,1.2611457244873046,10.25316860961914,-149.8080034126887,-16.445705898902858,-157.1050203401573,1196.0,9723.0,-2874.0,-51.651719465951295,-6.053501237562556,-95.07792266088191,8.894806515320665,0.4106225915635155,-4.530971136173083,1.820034832615717,1.1822569878551281,-0.987901748373428,0.34011361239120674,0.4465234316322595,-0.19963248251474336,10.34983001463905,217.70366681590502,10209.163579843356,0,0
2026-03-12T18:37:10.657,3368088,-0.21009119567871093,0.9403227020263671,9.65282254333496,-148.9433631396736,-16.01004942699063,-156.0566187129447,1201.0,9736.0,-2865.0,-52.26057772743531,-6.101783325107858,-96.63848884801136,8.24159625001136,-0.19620769433550925,-4.693635044022878,1.873914033189093,1.1625904872480965,-1.0193155273314518,0.3584938999703746,0.4576911871682357,-0.2096158121502698,9.70079007852265,216.3194751984406,10219.604786878992,0,0
2026-03-12T18:37:10.669,3368098,-0.3908534210205078,1.1767501159667968,10.486004721069335,-152.86789408849972,-16.24924547283138,-159.73208921590913,1201.0,9736.0,-2865.0,-52.886372796107025,-6.138491533439445,-98.23580974017045,9.116664574356586,-0.3446414821587013,-4.4904999334681275,1.935604468748669,1.141756911340112,-1.048257218766141,0.3774720947132035,0.4686396475253552,-0.2198782859535933,10.559062564566974,221.69116208538458,10219.604786878992,0,0
2026-03-12T18:37:10.669,3368108,-0.4261678955078125,0.9792284790039062,9.343371978759764,-155.03846256141975,-19.429305835004868,-160.3935220786364,1194.0,9736.0,-2867.0,-53.53046076161063,-6.1988326206375435,-99.83974496095682,8.13699768626383,-0.4589830887727544,-5.114346663611278,1.9867198289271375,1.1201095742455989,-1.08290967512122,0.3969419537094724,0.4793609025245434,-0.2304766753221007,9.40420690025092,223.92075545475666,10219.34542913586,0,0
2026-03-12T18:37:10.670,3368118,-0.08858546142578125,1.1043255157470702,10.81520744934082,-155.27538555650617,-22.27496136820448,-161.24204031234552,1194.0,9736.0,-2867.0,-54.16951362623211,-6.3182555740203314,-101.45216536408027,9.36372944175202,-1.1967327824489227,-4.4136456434227025,2.049151766494488,1.091520112724793,-1.1101404395821153,0.41701603790304287,0.48978582754813954,-0.24133650163820394,10.871802720845482,224.95691771484758,10219.34542913586,0,0
2026-03-12T18:37:10.673,3368128,-0.44113165588378905,0.996586441040039,9.487622628784179,-158.05335471198566,-22.812964458748123,-158.66267708735788,1202.0,9735.0,-2859.0,-54.82385048130417,-6.408476442221434,-103.03879213495385,8.330443809340483,-0.9463179322236143,-5.233800436644772,2.100469361519074,1.0658260794015186,-1.1450412672893344,0.4375827107867154,0.49994364425381255,-0.2525341273967862,9.550013864833142,225.11139327816366,10217.08911579027,0,0
2026-03-12T18:37:10.681,3368138,-0.5117606048583984,1.0600327850341795,9.70968483276367,-159.96908633502682,-24.90792730204827,-161.40966292036924,1202.0,9735.0,-2859.0,-55.48373129762683,-6.512703429056386,-104.65288876415754,8.582779675081937,-1.175932478668447,-5.266096748660872,2.153502700895845,1.0382557532956116,-1.179736701254304,0.45865862005787816,0.5098158755849819,-0.2640671629149199,9.7807744056201,228.61231967987771,10217.08911579027,0,0
2026-03-12T18:37:10.690,3368148,-0.4590881683349609,1.071405242919922,9.827000714111328,-159.49155942822466,-26.675293117884408,-160.81688988673972,1193.0,9733.0,-2862.0,-56.12913430623758,-6.637879377490365,-106.26105766302493,8.682310774019498,-1.505115647552104,-5.303237883965674,2.2067209215064993,1.0078565278677891,-1.2142775438925513,0.4802451034436702,0.5193745464227961,-0.2759337284154915,9.895888751193903,228.0596432177682,10214.96852662797,0,0
2026-03-12T18:37:10.700,3368158,-0.5291185668945312,1.1222820281982422,9.931148486328125,-156.0122346739667,-25.181269668453655,-162.03153869580052,1193.0,9733.0,-2862.0,-56.72720635904208,-6.740889077090643,-107.88137304998294,8.811890566214547,-1.734593905576602,-5.389754902995513,2.260417229761115,0.9756529299798428,-1.2491524665286688,0.5023464264655401,0.5286019446468719,-0.28813682782769745,10.008356192010089,226.3363277121217,10214.96852662797,0,0
2026-03-12T18:37:10.710,3368168,-0.4471171600341797,0.9995791931152344,9.533711010742186,-152.81125590004936,-23.806768094977365,-163.78901560013648,1200.0,9743.0,-2874.0,-57.29170796297116,-6.8342148407863945,-109.5192632059843,8.389756849069617,-1.9589116954953258,-5.579906225272955,2.309150076278034,0.9417228558295162,-1.2853772558496774,0.524912489301092,0.537481154031962,-0.30068960978580805,9.596390881704055,225.2662508413991,10228.68148883325,0,0
2026-03-12T18:37:10.720,3368178,-0.17417817077636719,1.0773907470703123,10.63683942565918,-148.0263554280454,-22.382226647379177,-165.40589435212556,1200.0,9743.0,-2874.0,-57.80363666897865,-6.938166160179232,-111.17332214950555,9.198787251345065,-2.761541743038675,-5.106685943727688,2.3651208795596124,0.9003958268231425,-1.3163974535576501,0.5480151343985915,0.5459386271878932,-0.31353973073706315,10.692682629925253,223.09611349692133,10228.68148883325,0,0
2026-03-12T18:37:10.749,3368188,-0.4836287353515625,1.0079588989257813,9.358934289550781,-144.98424699380178,-20.591648515588844,-165.05342280395553,1195.0,9727.0,-2860.0,-58.2724708795476,-6.992803629007728,-112.82385637754511,8.20374611730918,-2.3949002374869086,-5.831410205103282,2.4104509656217137,0.8633001220815493,-1.3540908822745528,0.5715475244107538,0.5540170567803,-0.3267535589202489,9.42547234528386,220.65149046460252,10208.92521277338,0,0
2026-03-12T18:37:10.758,3368198,-0.7068880401611328,1.2012906829833985,9.794678991699218,-144.18550723429763,-19.184316634341737,-166.2491489796391,1195.0,9727.0,-2860.0,-58.71372730112125,-7.015417308630633,-114.48634786734151,8.681595666161307,-2.6381307027594305,-5.8634673208400745,2.459807918449077,0.8243650328281455,-1.3915346721507091,0.5955494579916494,0.5616984464014728,-0.3403282367361142,9.89335769881892,220.8987959170276,10208.92521277338,0,0
2026-03-12T18:37:10.759,3368208,-0.479438882446289,0.9145850341796874,8.846575134277343,-143.93066665555384,-18.7695713035944,-166.78921706126798,1199.0,9726.0,-2868.0,-59.16220189086681,-7.048781008500828,-116.15424003795418,7.651502296661418,-2.7147174147784874,-6.1442681254210445,2.4982780972944556,0.7852595908001553,-1.4311826931038456,0.6,0.5689814912671649,-0.35428542360348547,8.906639042487408,221.10399485025962,10210.685628301362,0,0
2026-03-12T18:37:10.760,3368218,-0.46686932373046874,1.2509703674316406,10.547655413818358,-146.0962133231095,-20.62800559930685,-168.08607969636654,1199.0,9726.0,-2868.0,-59.61235980804918,-7.108483088839036,-117.83510083491785,9.067732550712659,-3.668436126306236,-5.640748977382954,2.5501210914595585,0.7373466010940365,-1.46527633013451,0.6,0.5757786023208271,-0.3685692487179258,10.631835615465672,223.65721171035338,10210.685628301362,0,0
2026-03-12T18:37:10.770,3368228,-0.4016273284912109,1.0133458526611328,9.470863217163085,-147.76851625726073,-19.5377651513623,-165.67919332065722,1196.0,9738.0,-2863.0,-60.082086403397085,-7.158085320226674,-119.49189276812443,8.017131597747493,-3.5260675943129924,-6.0412984000768635,2.5908380213254776,0.691554636273643,-1.5028039744232493,0.6,0.5821114545348799,-0.38321369117369614,9.533384729796087,222.86061510138086,10220.36344754921,0,0
2026-03-12T18:37:10.782,3368238,-0.7164648468017578,1.274313833618164,10.047267266845703,-148.3470349566799,-20.374743939253317,-165.06485785500465,1196.0,9738.0,-2863.0,-60.53364834081738,-7.190707516348396,-121.14254134667448,8.639179206915406,-3.829157865454764,-6.09357717188192,2.6370713661937124,0.6434641117548089,-1.5402836499499375,0.6,0.5879575495567756,-0.3982179111455223,10.15306737664448,222.86403987570858,10220.36344754921,0,0
2026-03-12T18:37:10.790,3368248,-0.3896563201904297,0.967257470703125,9.303269100952148,-149.9992721601455,-23.304764424113053,-164.57966922660427,1197.0,9738.0,-2869.0,-61.014101024636844,-7.276616036044054,-122.78833803894052,7.69592830381202,-3.9459365217832016,-6.223284607541554,2.673320189493355,0.5949446753389223,-1.5784787485849727,0.6,0.5933130893138547,-0.4135886959327406,9.361529523920028,223.89587136920431,10222.16288267801,0,0
2026-03-12T18:37:10.800,3368258,-0.7996633544921875,1.0558429321289062,8.788515744018554,-151.51933038733384,-26.00038327018401,-164.13329568847593,1197.0,9738.0,-2869.0,-61.488595602523354,-7.346139284080449,-124.42967099582528,7.4701289545449985,-3.6525571787734075,-6.668453986528951,2.706801156853223,0.5500428169979203,-1.6204858391235084,0.6,0.5982147039663501,-0.4293637607696517,8.887759828027885,224.88634054735996,10222.16288267801,0,0
2026-03-12T18:37:10.811,3368268,-0.4531026641845703,1.0372878692626952,9.658209497070311,-153.55778395634712,-21.84035260856929,-163.48263203339783,1192.0,9733.0,-2862.0,-61.986860140074626,-7.41101486443791,-126.06449731615925,7.825806223331011,-4.565707381769215,-6.27488671571245,2.7432833308002347,0.4968199570325248,-1.6579861856864235,0.6,0.6,-0.4454976790038894,9.724313797760223,225.35209116451122,10214.851785513092,0,0
2026-03-12T18:37:10.820,3368278,0.06584054565429687,0.8565256439208984,10.028113653564452,-153.11316123983937,-19.69312439988375,-167.204021470726,1192.0,9733.0,-2862.0,-62.49199302225217,-7.499449080292654,-127.73653753086651,7.616191635027245,-5.337740516292226,-5.9591591599556235,2.7771535684432496,0.43679091359155847,-1.69181411062669,0.6,0.6,-0.46195340429004617,10.064841509181948,227.57118466420422,10214.851785513092,0,0
2026-03-12T18:37:10.830,3368288,-0.316034619140625,1.006761798095703,9.94012674255371,-151.5041083406522,-18.037674447893053,-166.7076997530679,1209.0,9730.0,-2858.0,-62.960178443749555,-7.537451803895462,-129.40361452839718,7.695236941404185,-5.301375249801265,-6.25723938229533,2.811294348789432,0.3780205036771426,-1.7280707068828984,0.6,0.6,-0.4787548772475163,9.995977533819875,225.98741049125567,10212.871535469347,0,0
2026-03-12T18:37:10.841,3368298,-0.8014590057373047,1.2228384979248046,9.792284790039062,-153.38377967340003,-16.27466049206161,-168.17108377282247,1209.0,9730.0,-2858.0,-63.41983420241515,-7.515049000634828,-131.0853253661254,7.8178709495270535,-5.19172795081991,-6.651754337647427,2.846130962410432,0.3212116758064094,-1.767669426505482,0.6,0.6,-0.49593513994105853,9.90083390119816,228.19500839929796,10212.871535469347,0,0
2026-03-12T18:37:10.850,3368308,-0.46806642456054687,0.9624690673828125,9.428366137695312,-152.55307729952804,-19.21268765269668,-164.63739707099666,1205.0,9735.0,-2864.0,-63.88375410633117,-7.549156988988432,-132.73169933683536,7.137445171607065,-5.374119061268303,-6.610520833723244,2.873742832914605,0.2634584279158205,-1.8062680153200736,0.6,0.6,-0.513483822274165,9.488915686732033,225.27103958278545,10218.842693769193,0,0
2026-03-12T18:37:10.860,3368318,-0.47584757995605464,0.9798270294189453,9.379285003662108,-149.46883111556582,-21.835672640480944,-162.18640530531692,1205.0,9735.0,-2864.0,-64.30830738205252,-7.607671191616491,-134.35356338988854,6.971625012323896,-5.567060834848713,-6.714440845449765,2.899307196792276,0.20467100227382337,-1.8453112374179528,0.6,0.6,-0.5314049977136962,9.442323819211609,221.63519156617778,10218.842693769193,0,0
2026-03-12T18:37:10.873,3368328,-0.4225765930175781,1.0187328063964842,9.783306533813477,-148.55132462632056,-23.848818829242468,-161.45149288089155,1198.0,9731.0,-2863.0,-64.71774179989627,-7.691567118973226,-135.96807831869745,7.0655351811505,-6.0787383290813555,-6.63543143723362,2.9254131103747247,0.1417253646982647,-1.8829905685134347,0.6,0.6,-0.5496846684954317,9.84527674788029,220.6872147661778,10213.928431313781,0,0
2026-03-12T18:37:10.883,3368338,-0.2597708801269531,0.9546879119873046,9.727641345214844,-147.7072186562149,-22.420913322903072,-160.7753734504202,1198.0,9731.0,-2863.0,-65.1178143900535,-7.774203974290318,-137.57583205320165,6.736432749318496,-6.342528722122839,-6.644574845367216,2.947885776299891,0.07712557631488075,-1.9201947722126003,0.6,0.6,-0.5683177296013402,9.777827778223028,219.47400872429083,10213.928431313781,0,0
2026-03-12T18:37:10.890,3368348,-0.41838674011230464,1.0283096130371092,9.72345149230957,-148.77064116371773,-21.107240257070828,-160.15334357438658,1203.0,9726.0,-2864.0,-65.51588432249397,-7.8287443533654395,-139.17736548894553,6.695990078567016,-6.4724684265384935,-6.798519952435909,2.9696229919292776,0.012214878668753369,-1.9583572721609048,0.6,0.5995220266379008,-0.5873134010206262,9.786622351345919,219.60717821052407,10210.033349602732,0,0
2026-03-12T18:37:10.900,3368358,-0.13347674255371092,0.9157821350097656,9.739013803100585,-148.8689898706203,-22.298661036505163,-160.94107608843566,1203.0,9726.0,-2864.0,-65.91892771000371,-7.919228565273392,-140.78677624982987,6.294842022786867,-6.821686423926882,-6.717245355354409,2.987082840974789,-0.05516195578695771,-1.9951467798287323,0.6,0.5983714366729512,-0.6,9.78288622118184,220.36614168611166,10210.033349602732,0,0
2026-03-12T18:37:10.910,3368368,-0.5087678527832031,1.064222637939453,9.517550149536133,-149.03947068097068,-21.23476815358475,-159.50579000136082,1199.0,9743.0,-2869.0,-66.3024805954677,-7.963988183148565,-142.38183414984348,6.292658027469638,-6.693296761373111,-7.05394064128124,3.004259279930743,-0.12026349954967851,-2.0347008934479214,0.6,0.596571632875777,-0.6,9.590368887590492,219.33029030063,10227.160456353464,0,0
2026-03-12T18:37:10.920,3368378,-0.22385785522460935,1.1037269653320312,10.405798965454101,-150.95631302649304,-20.17598670129797,-161.22532680125195,1199.0,9743.0,-2869.0,-66.70404352521908,-8.024878880431935,-143.994087417856,6.404721884514957,-7.699829443776926,-6.7667253658102675,3.022281901294254,-0.19430286707763603,-2.0708326248994338,0.6,0.5940339756007956,-0.6,10.466564749849516,221.78477153333588,10227.160456353464,0,0
2026-03-12T18:37:10.930,3368388,-0.4291606475830078,1.0085574493408203,9.377489352416992,-152.5598079843736,-22.16190776519413,-159.84730065715178,1194.0,9729.0,-2862.0,-67.1141177328518,-8.08372086527961,-145.59256042442752,5.769341659034247,-6.995325595823879,-7.1762906757836245,3.0337756881163274,-0.2602922811903367,-2.110456598682411,0.6,0.5908396217361034,-0.6,9.441327954517245,222.0738721583424,10211.274210400972,0,0
2026-03-12T18:37:10.940,3368398,-0.00718260498046875,0.9929951385498046,10.334571466064453,-152.19502334562372,-23.268955143978598,-163.53951660457963,1194.0,9729.0,-2862.0,-67.5242008837618,-8.191069683936396,-147.2279555904733,5.744001973629143,-8.110986119521721,-6.805349645476662,3.0448474722348293,-0.3362811102497706,-2.1458324437101197,0.6,0.586889333822972,-0.6,10.382170212541856,224.61064733428603,10211.274210400972,0,0
2026-03-12T18:37:10.950,3368408,-0.5877765075683593,1.0468646759033202,9.19313582458496,-153.0594214779738,-23.64743873246031,-163.89635527621326,1208.0,9728.0,-2868.0,-67.92152493223976,-8.24660768795706,-148.86691914323544,5.411064437791845,-7.143747081663332,-7.43127372558328,3.052473744863556,-0.40160280235040785,-2.186843003251463,0.6,0.5822904324936685,-0.6,9.271200200716777,225.49590491759315,10213.651257018717,0,0
2026-03-12T18:37:10.960,3368418,0.031124621582031248,1.0319009155273438,10.692504614257812,-153.7746677597359,-21.995643633863484,-163.3446468541162,1208.0,9728.0,-2868.0,-68.33469699448848,-8.342055805210832,-150.5003656117766,5.431388299619881,-8.782118650615706,-6.84525568098076,3.0601858134418585,-0.4820826290237164,-2.221466126660352,0.6,0.5768921365972279,-0.6,10.742227104630556,225.41501822057248,10213.651257018717,0,0
2026-03-12T18:37:10.971,3368428,-0.36092590026855464,1.0121487518310546,9.607332711791992,-154.43269433895705,-20.475992143154404,-162.8370751057869,1199.0,9735.0,-2872.0,-68.74062823497887,-8.386519012039292,-152.12873636283447,5.000390903087993,-7.899229192200831,-7.346198126505342,3.0635368766356477,-0.5526587971315389,-2.260504186306524,0.6,0.5707941830772867,-0.6,9.667241304342532,225.35446825843934,10220.38208679108,0,0
2026-03-12T18:37:10.981,3368438,-0.6841431243896484,1.2024877838134764,9.957484704589843,-152.63807879184048,-18.597912771702052,-164.21010909732396,1199.0,9735.0,-2872.0,-69.10971657897818,-8.385378431714111,-153.7708374538077,5.225703141562435,-8.27410189098104,-7.5051733216607595,3.069056999430503,-0.6258688188007291,-2.3005225807302847,0.6,0.56397095939439,-0.6,10.053135348089718,224.96494257213274,10220.38208679108,0,0
2026-03-12T18:37:10.995,3368448,-0.4423287567138672,0.9804255798339843,9.484629876708984,-150.18703248849323,-20.230079749965885,-162.99330036953805,1202.0,9737.0,-2860.0,-69.46388759971252,-8.419024029123271,-155.40077045750309,4.558973618708754,-8.059537181914608,-7.4883072940949695,3.0679270345833265,-0.6958672277605771,-2.3397745688661655,0.6,0.5564552748296674,-0.6,9.545422617399899,222.55834475423327,10219.274582865459,0,0
2026-03-12T18:37:11.000,3368458,0.047285482788085934,0.8313865264892578,9.95329485168457,-153.77206988941379,-20.771673369968614,-165.793836339975,1202.0,9737.0,-2860.0,-69.86496274011225,-8.50140840898091,-157.05870882090284,4.071234438590537,-8.735173619790773,-7.183043730754048,3.0620097882846933,-0.7714706794991075,-2.3754309310811004,0.6,0.5481918274666416,-0.6,9.988068776188966,227.07907887119376,10219.274582865459,0,0
2026-03-12T18:37:11.012,3368468,-0.3705027069091797,0.9923965881347656,9.73063409729004,-157.39030429826067,-20.069939500371127,-165.810329432777,1191.0,9744.0,-2858.0,-70.27993358037683,-8.539036782732143,-158.7168121152306,4.11283586508776,-8.587643568998459,-7.538540157421972,3.056591074731537,-0.8444869084612557,-2.4140540876654906,0.6,0.5392072114236471,-0.6,9.788123578056833,229.49417357583107,10224.098053129186,0,0
2026-03-12T18:37:11.019,3368478,-0.5279214660644531,1.1911153259277343,10.478822116088866,-156.1590799543998,-16.144344340341437,-166.86550307815483,1191.0,9744.0,-2858.0,-70.66662787188909,-8.526987650562047,-160.38546714601213,4.2709993912681,-9.393593112850052,-7.565636308692353,3.0528115526145547,-0.9243464969959099,-2.4523647939911277,0.6,0.5294337827072344,-0.6,10.559506131189314,229.107822266962,10224.098053129186,0,0
2026-03-12T18:37:11.033,3368488,-0.3848679168701172,0.9738415252685546,9.578602291870117,-156.38635355804783,-17.492796793114124,-165.35626283190246,1206.0,9734.0,-2867.0,-71.05995565614063,-8.537050126633158,-162.03902977433117,3.562314749138674,-8.701644095380253,-7.700132456518377,3.0421081796043525,-0.9961924938804667,-2.491425626777967,0.6,0.5189523859106613,-0.6,9.635668762239225,228.26603596803693,10218.849299211726,0,0
2026-03-12T18:37:11.043,3368498,-0.25438392639160157,0.9846154327392578,9.98561657409668,-153.635445273404,-17.053373049664994,-167.24776180535028,1206.0,9734.0,-2867.0,-71.42289515564858,-8.555186250696817,-163.71150739238468,3.305193102813221,-9.222144459009758,-7.621594571059905,3.0290327089729976,-1.0720877293935058,-2.5291269489012373,0.6,0.5077232771081096,-0.6,10.037266415576953,227.74213796666473,10218.849299211726,0,0
2026-03-12T18:37:11.050,3368508,-0.5051765502929687,1.033696566772461,9.575010989379882,-150.86460965153168,-13.769103205691795,-165.86794086092226,1193.0,9733.0,-2861.0,-71.74514324618161,-8.517443566531936,-165.3701868009939,3.151011775713173,-8.909944165570392,-7.886080516330211,3.0146346843291774,-1.1437693634834716,-2.5688679377535713,0.6,0.49578929788980164,-0.6,9.643887566011363,224.63724636364387,10214.688394659917,0,0
2026-03-12T18:37:11.062,3368518,-0.028131869506835935,0.833182177734375,9.58279214477539,-148.31544087940915,-10.747574949236455,-164.5985055920485,1193.0,9733.0,-2861.0,-72.05533634504357,-8.49303199776094,-167.01617185691438,2.4438980713255654,-9.055773621253854,-7.674698881676897,2.993487560066796,-1.2158121932005699,-2.605930702671785,0.6,0.48314754478183813,-0.6,9.618985873435154,221.823462270515,10214.688394659917,0,0
2026-03-12T18:37:11.070,3368528,-0.565630142211914,1.0941501586914062,9.64683703918457,-147.49020560905643,-8.767768953297539,-161.43062514468463,1204.0,9724.0,-2859.0,-72.33022178530739,-8.401984622883118,-168.63047810836122,2.696175016069213,-9.172306715619044,-8.023956339984247,2.975142570574076,-1.287922231451409,-2.6458777120805532,0.6,0.4697980541448567,-0.6,9.725151252712033,218.83802516387283,10206.844419310015,0,0
2026-03-12T18:37:11.080,3368538,-0.6338648895263671,1.218648645019531,9.982623822021484,-146.73098916033192,-8.306347437033736,-162.83617513310986,1204.0,9724.0,-2859.0,-72.58616783555823,-8.303674582851471,-170.25883985969233,2.5512322019193725,-9.596506437990236,-8.092606235192752,2.9556450692043703,-1.3631289863938416,-2.6859017178159936,0.6,0.4557105975166374,-0.6,10.076689316942,219.35040122984728,10206.844419310015,0,0
2026-03-12T18:37:11.090,3368548,-0.430956298828125,1.0564414825439452,9.546879119873047,-148.19251002750536,-10.361839642071036,-161.40928112246107,1187.0,9738.0,-2859.0,-72.86235309516567,-8.242648913421796,-171.87293267091695,2.0119182255074843,-9.24269555642738,-8.08343881965219,2.9311277876875534,-1.4337226028287438,-2.7252350644223275,0.6,0.44093199811686157,-0.6,9.614816319982783,219.3657762311385,10218.194263175857,0,0
2026-03-12T18:37:11.100,3368558,0.05805939025878906,0.8954314208984374,9.962871658325195,-148.65710922530494,-12.572892470705352,-162.57653863266418,1187.0,9738.0,-2859.0,-73.15665385522671,-8.24784044011515,-173.4986980572436,1.3412596740301108,-9.705474620122754,-7.789532034296808,2.9003722786614365,-1.5078156887945215,-2.761083428993816,0.6,0.42542798738768745,-0.6,10.003198488612972,220.65390244018417,10218.194263175857,0,0
2026-03-12T18:37:11.110,3368568,-0.48123453369140623,1.1145008728027344,9.826402163696288,-151.24454048728055,-9.407061073048926,-162.13041554205105,1200.0,9738.0,-2865.0,-73.45200108469793,-8.174993752899267,-175.1200022126641,1.5480873847929788,-9.64008786420934,-8.162262644794728,2.872115355221726,-1.5801533189250656,-2.800065464610137,0.6,0.40921682774423834,-0.6,9.901104905746143,221.92267903276326,10221.392713324345,0,0
2026-03-12T18:37:11.120,3368578,-0.24121581726074218,0.9403227020263671,9.425971936035156,-152.1049772482981,-6.254496187205014,-163.07998229868696,1200.0,9738.0,-2865.0,-73.76300153135921,-8.092095530873824,-176.75080203565096,1.0097992756541716,-9.27059459383154,-8.125067384403897,2.8389801477585936,-1.6477663758904304,-2.8380963963773636,0.6,0.3923464248213487,-0.6,9.475829187641853,223.0921859967334,10221.392713324345,0,0
2026-03-12T18:37:11.141,3368588,-0.40880993347167965,1.0678139404296874,9.859920986938477,-151.77657906843427,-7.434136492228612,-162.913583714792,1198.0,9730.0,-2853.0,-74.05884151100119,-8.008533752710006,-178.37993787279888,0.9151318536349409,-9.752051400687241,-8.198725495998765,2.805409494300519,-1.7191075865488432,-2.876282396567291,0.6,0.37478019360690434,-0.6,9.92599587153606,222.78292595685673,10210.176932844994,0,0
2026-03-12T18:37:11.141,3368598,-0.7864952453613281,1.2737152832031249,9.86351228942871,-151.47445274295953,-8.519405572850323,-159.80049701760862,1198.0,9730.0,-2853.0,-74.32961050804548,-7.904497749021917,-179.97794284297495,0.9805390796454487,-9.840557411810252,-8.490681529440465,2.7729866618205183,-1.7902504632569414,-2.91677137368377,0.6,0.35652081128536056,-0.6,9.97646230270793,220.34810857406634,10210.176932844994,0,0
2026-03-12T18:37:11.150,3368608,-0.39264907226562495,1.025316860961914,9.714473236083984,-152.39649652352276,-10.237853127022296,-156.93645725619993,1201.0,9729.0,-2857.0,-74.6253969444119,-7.852246054219255,178.45269258446305,0.34528937637756374,-9.651505388589667,-8.288210934873801,2.7347929622505296,-1.8584640343856955,-2.9546586807870203,0.6,0.3375982347705621,-0.6,9.776320279835144,218.99442322904395,10210.694932275668,0,0
2026-03-12T18:37:11.160,3368618,-0.3537432952880859,0.824203921508789,8.842385281372069,-150.12477680164093,-11.018824876860512,-156.22154067570395,1201.0,9729.0,-2857.0,-74.90486724148538,-7.808782148400685,176.890477177706,0.0,-8.769149605697503,-8.361695043994043,2.6937710678167717,-1.9169631974860304,-2.992701496758556,0.6,0.3181101741929061,-0.6,8.887756966041383,216.9424644519833,10210.694932275668,0,0
2026-03-12T18:37:11.170,3368628,-0.36930560607910157,0.9971849914550781,9.779116680908203,-148.35479465750967,-13.65731888671167,-154.60381742164765,1197.0,9723.0,-2860.0,-75.15525332903064,-7.793901237020031,175.34443900348953,-0.2149290445276734,-9.722838810650947,-8.329457201276718,2.6512474507109225,-1.983978711808652,-3.0298561277397535,0.6,0.29797211668774476,-0.6,9.836762048391828,214.70446622832827,10205.34849968388,0,0
2026-03-12T18:37:11.180,3368638,-0.5728127471923827,1.1605892547607422,10.147823736572265,-147.6064110849089,-13.604733375774735,-156.63551202791584,1197.0,9723.0,-2860.0,-75.38398059847917,-7.762851472687004,173.77808388321037,-0.3386992117945101,-10.135282487450242,-8.459527068094403,2.608142551714083,-2.054051563632907,-3.0677346274443873,0.6,0.27715416945036425,-0.6,10.23002485090587,215.65580212885627,10205.34849968388,0,0
2026-03-12T18:37:11.190,3368648,-0.4034229797363281,0.9894038360595703,9.600150106811522,-143.5578981981162,-14.276354705712757,-154.18467106568255,1187.0,9720.0,-2858.0,-75.57900315298231,-7.751126248027709,172.23623717255356,-0.7017767262812216,-9.53669011528042,-8.441511473598831,2.5621079126845014,-2.117177187813925,-3.1048674960476697,0.6,0.2557264151746528,-0.6,9.659428146878158,211.15301852063766,10200.761393151004,0,0
2026-03-12T18:37:11.200,3368658,-0.14604630126953125,1.024718310546875,10.405798965454101,-144.39326634226688,-13.294246329255737,-155.52989738042794,1187.0,9720.0,-2858.0,-75.78323014773815,-7.753804256563072,170.6809381987493,-1.3233874685286349,-10.259879570919894,-8.278400659776942,2.5106409274292267,-2.1864793437702774,-3.1398367301057575,0.6,0.23362776011521305,-0.6,10.457152061987538,212.63983946950816,10200.761393151004,0,0
2026-03-12T18:37:11.210,3368668,-0.4333505004882812,0.968454571533203,9.375095150756835,-143.32180503488553,-14.790706622915277,-151.4875055899937,1189.0,9725.0,-2864.0,-75.96973478781702,-7.743697498624315,169.16606314284934,-1.1555416615699357,-9.27837995980062,-8.543916936725031,2.4615992281513246,-2.2450741962177596,-3.1768967609809127,0.6,0.21096584113488243,-0.6,9.43494069929119,209.06546618401916,10207.44052150195,0,0
2026-03-12T18:37:11.220,3368678,-0.5404910247802734,1.140238540649414,10.002974536132811,-140.9760606320947,-15.287450093082056,-147.60850514279423,1189.0,9725.0,-2864.0,-76.1212568610129,-7.732028492555697,167.6899780914214,-1.4355469019223461,-9.906148485860978,-8.59867594546607,2.4105351027451194,-2.308973645860224,-3.21394026762904,0.6,0.18768822857160392,-0.6,10.082250445608448,204.68567754531048,10207.44052150195,0,0
2026-03-12T18:37:11.231,3368688,-0.38786066894531246,0.9864110839843749,9.516951599121093,-138.8179757815271,-15.74445408563549,-144.03982473137071,1199.0,9741.0,-2878.0,-76.25803329466376,-7.7363105416778,166.2495798441077,-1.7094222732687512,-9.340224226297208,-8.568143900185039,2.3575392668122452,-2.366340249801348,-3.250127381031427,0.6,0.16386080124751684,-0.6,9.575792941847451,200.6633731979489,10227.78402196683,0,0
2026-03-12T18:37:11.240,3368698,0.023942016601562498,0.8583212951660156,9.873687646484374,-141.63253771900494,-17.124897758784652,-146.51663875286107,1199.0,9741.0,-2878.0,-76.43471966295347,-7.791022280691144,164.7844134565791,-2.401006221468495,-9.502528084879271,-8.335553291152205,2.298526266528597,-2.424445047690389,-3.283480670233805,0.6,0.13947673441984235,-0.6,9.9109533550629,204.49978800822893,10227.78402196683,0,0
2026-03-12T18:37:11.250,3368708,-0.3399766357421875,1.0205284576416016,9.732429748535155,-143.34193470148455,-15.43490593808188,-146.6353076526322,1203.0,9737.0,-2865.0,-76.61032577520618,-7.7963443342502705,163.31806038005277,-2.299162635652468,-9.441578725351311,-8.603448602189935,2.241401620569491,-2.4810779224197437,-3.3189724289118687,0.6,0.11455128924044926,-0.6,9.791692971896076,205.63817742740326,10220.792679631066,0,0
2026-03-12T18:37:11.260,3368718,-0.8038532073974609,1.1276689819335937,9.102156161499023,-144.67457992536578,-12.44011346303533,-149.94448304042163,1203.0,9737.0,-2865.0,-76.7802794162645,-7.726801345696253,161.81861554964854,-1.9628687599353256,-8.953377756848145,-8.939910665124863,2.1884463389755857,-2.532052524488402,-3.3572459625296704,0.6,0.08914153323156966,-0.6,9.206903067816722,208.7314985664922,10220.792679631066,0,0
2026-03-12T18:37:11.270,3368728,-0.430956298828125,1.0408791717529295,9.677363110351562,-143.2606135313365,-10.884904385992503,-147.7889243971879,1208.0,9734.0,-2857.0,-76.94760687209435,-7.680087166559214,160.34072630567667,-2.701047261886992,-9.295548352396484,-8.703185424857786,2.129014328361365,-2.585632887892181,-3.3926136495265746,0.6,0.06322191914829521,-0.6,9.742715717462044,206.11562460751216,10216.284500737047,0,0
2026-03-12T18:37:11.285,3368738,-0.35015199279785153,0.853532891845703,8.744821563720702,-143.31976444882957,-11.214112035113102,-148.8458104454129,1208.0,9734.0,-2857.0,-77.12147252983685,-7.641112970568354,158.85226820122253,-2.6819786853362237,-8.30694030549553,-8.746101986389396,2.0706616233853827,-2.6286717565829294,-3.4278735493496115,0.6,0.03689826638088345,-0.6,8.79335140869722,206.93328992106575,10216.284500737047,0,0
2026-03-12T18:37:11.291,3368748,-0.5213374114990235,1.2102689392089843,10.250774407958984,-141.6941832929232,-13.356983072304054,-151.25814560977986,1193.0,9727.0,-2862.0,-77.25933539113169,-7.614691385636103,157.33968674512474,-3.3459369268665093,-9.727096122863768,-8.805037967969028,2.006644220304967,-2.6850535770443935,-3.4631850700938624,0.6,0.010037682879829073,-0.6,10.335130360315219,207.68889519941044,10209.251784533477,0,0
2026-03-12T18:37:11.300,3368758,-0.5386953735351562,1.1486182464599608,9.923965881347655,-142.19864862948936,-14.60842442651973,-153.39749396099745,1193.0,9727.0,-2862.0,-77.40206989858838,-7.598066035709405,155.80571180551476,-3.4589923016406834,-9.33821966741722,-8.843508735193005,1.9424734828292316,-2.7367592371127873,-3.498345855084106,0.6,-0.017312579581807503,-0.6,10.00472965130599,209.67749733767943,10209.251784533477,0,0
2026-03-12T18:37:11.310,3368768,-0.6272808349609375,1.2395979095458984,10.189722265624999,-142.6627567391302,-15.83975047239815,-155.04569444411766,1201.0,9714.0,-2869.0,-77.54222622431081,-7.587661963164559,154.25525486107358,-3.7604326404544084,-9.529765274938972,-8.910411061431645,1.8762961190783172,-2.7895760365142444,-3.533638216212946,0.6,-0.045163131607003,-0.6,10.283993585851448,211.28825623090074,10199.77244844217,0,0
2026-03-12T18:37:11.321,3368778,-0.6871358764648438,1.0666168395996094,9.175777862548827,-144.5297361999998,-16.972570434606297,-156.56203888858823,1201.0,9714.0,-2869.0,-77.7032538866323,-7.577215196827509,152.6896344721877,-3.5055064765794413,-8.535477743159701,-8.993157150142887,1.813622438497835,-2.831806851736654,-3.569216240898659,0.6,-0.07340771892424516,-0.6,9.26308407486857,213.74888260328058,10199.77244844217,0,0
2026-03-12T18:37:11.333,3368788,-0.7841010437011718,1.0971429107666015,9.151835845947264,-145.84735730399981,-19.134764799837793,-157.07707577750116,1209.0,9721.0,-2862.0,-77.87175968804677,-7.579099601208438,151.11886371441267,-3.6541931321370162,-8.466105223994859,-9.067345425529105,1.7504242995688177,-2.8727208854169533,-3.604991349726641,0.6,-0.10203279285063628,-0.6,9.250655996443925,215.19943910548778,10205.418462757909,0,0
