recv_time,timestamp,ax,ay,az,gx,gy,gz,mx,my,mz,roll,pitch,yaw,ax_w,ay_w,az_w,vx,vy,vz,x,y,z,a_norm,g_norm,m_norm,stationary,bias_ready
2026-03-12T20:09:49.024,318074,-0.814028564453125,1.1468225952148436,9.029731561279297,-9.207317073170733,-2.682926829268293,-13.841463414634148,1170.0,9787.0,-2803.0,7.2381085859849215,5.110447145565633,0.0,0.0,0.0,-0.668056200218528,0.0,0.0,-0.0065803535721525004,0.0,0.0,-6.573773218580348e-05,9.138593799781473,16.83920703346106,10247.491302753078,0,0
2026-03-12T20:09:49.025,318084,-0.38367081604003905,1.0690110412597655,9.801263046264648,-9.178048780487806,-2.760975609756098,-13.641463414634147,1165.0,9772.0,-2799.0,7.132501751749167,5.040022305739602,-0.13641463414634147,0.4834934383988579,-0.1573805600828162,0.0,0.00476241036822875,-0.0015501985168157398,-0.0064816482685702125,4.7576479578605215e-05,-1.5486483182989242e-05,-0.0001304236606566341,9.866850825034758,16.671805236010997,10231.500867419209,0,0
2026-03-12T20:09:49.025,318094,-0.27832594299316404,1.150413897705078,10.644620581054687,-9.073073170731709,-2.842536585365854,-13.320878048780488,1165.0,9772.0,-2799.0,7.0286686784013925,4.958759632911108,-0.26962341463414635,0.6473125382589324,-0.16381857385284082,0.8827379494507372,0.011067002714555805,-0.0031405584915139857,0.0023105452575481024,0.0001580882602174391,-4.6845176030030975e-05,-0.0001072108898730719,10.710222443123627,16.366015489149362,10231.500867419209,0,0
2026-03-12T20:09:49.026,318104,-0.6332663391113281,1.1001356628417969,9.4481183013916,-9.078934634146343,-2.7956214634146344,-13.09911024390244,1174.0,9767.0,-2800.0,6.933435032945875,4.913974785466365,-0.40061451707317075,0.18350067252543167,0.0,-0.2755368340722324,0.01270847929821297,-0.0030934501141412756,-0.0004381507369266081,0.0002848878801463692,-7.77018974942723e-05,-0.00011148080484509564,9.53300918755451,16.181138484041117,10228.02840238528,0,0
2026-03-12T20:09:49.026,318114,-0.7607575775146483,1.199495031738281,9.661800799560547,-9.103839375609757,-2.7085571121951224,-12.79264483902439,1174.0,9767.0,-2800.0,6.845915041027125,4.880605074813875,-0.5285409654634147,0.0,0.0,0.0,0.012517852108739775,-0.0030470483624291562,-0.000431578475872709,0.0004096563348325332,-0.00010806420873744528,-0.00011568079301421891,9.765650777766917,15.933233663771546,10228.02840238528,0,0
2026-03-12T20:09:49.026,318124,-0.6464344482421874,0.9720458740234375,8.765172277832031,-9.126751737756098,-2.6284579090731715,-12.92533081287805,1159.0,9768.0,-2810.0,6.748250322517555,4.8443907666177495,-0.6577942735921951,0.0,0.0,-0.9648915417241515,0.012330084327108679,-0.0030013426369927187,-0.009929286484717512,0.0005324242209255164,-0.00013793955747226508,-0.00021475868420353262,8.842567259408057,16.039656008927935,10230.014907125014,0,0
2026-03-12T20:09:49.037,318134,-0.40282442932128903,1.0193313568115234,9.612121115112304,-9.181977452394147,-2.6572056665912203,-13.047401908823417,1159.0,9768.0,-2810.0,6.647384940409753,4.781347128554917,-0.7882682926804293,0.4028129727269014,-0.10575911293638374,-0.14120986586958928,0.016112840843562026,-0.003998049759861208,-0.011171264366262203,0.0006928590767317754,-0.00017774213501580628,-0.0003261448565382885,9.674408316141356,16.174181539144662,10230.014907125014,0,0
2026-03-12T20:09:49.043,318144,-0.14305354919433594,0.8595183959960937,9.460089309692382,-9.232785109861151,-2.5860926278980694,-12.813365853678519,1175.0,9778.0,-2800.0,6.534603540361807,4.697095845593754,-0.9164019512172145,0.6314295172258433,-0.23278317609526378,-0.33038308227064483,0.022090728975583153,-0.006230993298001638,-0.014257968761134122,0.0009128526001211194,-0.00023981201592782685,-0.0004682558196054801,9.500132943193421,16.003578989249785,10238.64781111256,0,0
2026-03-12T20:09:49.053,318154,-0.3962403747558593,1.1055226165771483,9.962871658325195,-9.284406203511283,-2.27676619327598,-12.695613658554969,1175.0,9778.0,-2800.0,6.440111284742345,4.6381683294316165,-1.0433580878027642,0.41521369573467604,0.0,0.21656773133610052,0.025849222943935966,-0.006137528398531613,-0.01191090707605652,0.0011701734847309186,-0.0003008861126132299,-0.0005867775254756794,10.0318491999536,15.89221410055662,10238.64781111256,0,0
2026-03-12T20:09:49.063,318164,-0.7404068634033203,1.0474632263183594,8.91840118408203,-9.019702487718186,-2.23121026366756,-12.518988956114473,1174.0,9796.0,-2793.0,6.355145762281001,4.617321908735834,-1.168547977363909,0.0,0.0,-0.7966481713423423,0.025461484599776926,-0.0060454654725536384,-0.019579227957637745,0.0014233635423979592,-0.0003609794265714275,-0.0007817872352470048,9.010175426377655,15.590330871760267,10253.815923840255,0,0
2026-03-12T20:09:49.073,318174,-0.4644751220703125,0.9876081848144531,9.369109646606445,-9.020077508212928,-2.184420759647326,-12.356494229869217,1174.0,9796.0,-2793.0,6.2612316561062435,4.56888320960217,-1.2921129196626011,0.28647228085854787,0.0,-0.37865509780730555,0.027901314297236968,-0.005954783490465334,-0.02301529225167514,0.0017006743086849586,-0.00042010673421460476,-0.0010109282176059924,9.432461112343303,15.453687002205596,10253.815923840255,0,0
2026-03-12T20:09:49.084,318184,-0.3022679595947265,0.8655039001464844,9.254786517333983,-9.020422527068089,-2.307228074485296,-12.153340545138215,1167.0,9785.0,-2807.0,6.158603098757099,4.505561789255761,-1.4136463251139832,0.4253864694981155,-0.14289218050399666,-0.5174000529745708,0.03167285130733485,-0.007272949716072721,-0.027766453389699533,0.002015385418936549,-0.0004923433951439566,-0.0012873041587514848,9.300082601890868,15.309964414087677,10246.334124944395,0,0
2026-03-12T20:09:49.110,318194,-0.30705636291503907,1.0660182891845702,10.280701928710936,-8.971959456609959,-2.278747389502082,-11.868878179575939,1167.0,9785.0,-2807.0,6.066648927988068,4.441057317635493,-1.5323351069097426,0.4933170871802626,0.0,0.5218820725876903,0.03605693184645041,-0.00716385547033163,-0.022209418173865292,0.002373578782663652,-0.0005634179678974257,-0.0015078889421496476,10.340382524350023,15.051877470861543,10246.334124944395,0,0
2026-03-12T20:09:49.110,318204,-0.7643488800048828,1.1162965240478515,9.270947378540038,-8.693227090325065,-2.159862232488257,-12.051075242283034,1155.0,9781.0,-2797.0,5.993008190893757,4.423358982056903,-1.652845859332573,0.0,0.14339405492091317,-0.43868232350764913,0.03551607786875365,-0.00564396619730566,-0.026197297787807657,0.0027260108217898376,-0.0006192377722406119,-0.0017680920581076964,9.369141499391736,15.015512532126827,10238.417602344613,0,0
2026-03-12T20:09:49.113,318214,-0.8870517150878906,1.1156979736328125,9.101557611083983,-8.436793313342962,-2.050487888035538,-12.21869653997356,1155.0,9781.0,-2797.0,5.924840155309547,4.419693081906212,-1.7750328247323086,-0.17254534936849453,0.17566989821838963,-0.597450151437652,0.033283765009442676,-0.003828958206894937,-0.03168922231265142,0.0030557896234123805,-0.0006568698269552517,-0.0020828992969529766,9.212491175653279,14.98934712143964,10238.417602344613,0,0
2026-03-12T20:09:49.124,318224,-0.4782417816162109,0.8714894042968749,8.89266351623535,-8.347215701934061,-1.9401073935780608,-11.98754228019031,1171.0,9776.0,-2787.0,5.837704987856966,4.380243369739563,-1.8949082475342116,0.20422911664224624,0.0,-0.8610364186556794,0.03479616533322716,-0.003771523833791513,-0.03969509270172009,0.003400347525467907,-0.0006938904802278737,-0.002477370373746207,8.948054168167983,14.735711607946902,10232.731111487294,0,0
2026-03-12T20:09:49.133,318234,-0.44592005920410155,1.0749965454101562,9.95389340209961,-8.284316494559825,-1.784898802091816,-12.038294995336061,1171.0,9776.0,-2787.0,5.7609976388474875,4.33521212168021,-2.015291197487572,0.31442535655234094,0.0,0.20993955562352795,0.03737131261526931,-0.0037149509762846402,-0.03703176168830254,0.0037702865909689798,-0.0007303089500007294,-0.0028448403026386034,10.02169926370805,14.721966917177815,10232.731111487294,0,0
2026-03-12T20:09:49.149,318244,-0.38307226562499996,0.8259995727539062,8.775347634887694,-8.548400443287722,-2.0421068979244708,-11.802060664001859,1173.0,9780.0,-2802.0,5.6710397144970335,4.2873977793251115,-2.1333118041275907,0.27505626184306486,0.0,-0.9886563130258228,0.03952004710519447,-0.0036592267116403706,-0.04621454994628236,0.004161321574958903,-0.0007661343159000159,-0.0033036788162993254,8.822456900887063,14.715093837218044,10240.875597330532,0,0
2026-03-12T20:09:49.158,318254,-0.3130418670654297,1.0091559997558592,9.795277542114258,-8.727943041971045,-2.1958115168222205,-11.823749469418296,1173.0,9780.0,-2802.0,5.588235839561982,4.228770519040264,-2.251549298821774,0.4155825356638224,0.0,0.0,0.043020734374905195,-0.0036043383109657648,-0.04552133169708812,0.004586937389789247,-0.0008013755213106639,-0.0037551332411369367,9.852098922028087,14.859328029115897,10240.875597330532,0,0
2026-03-12T20:09:49.163,318264,-0.6248866333007812,1.1887211242675781,10.018536846923828,-8.683366135198728,-2.2250246442569304,-11.887605609425808,1169.0,9785.0,-2794.0,5.520380633454785,4.196586832308849,-2.3704253549160317,0.12387834471880321,0.21448639884615783,0.2984611576938203,0.043595625054761826,-0.0014375822076666234,-0.04189866931834767,0.005017870746696529,-0.0008149355920439429,-0.004169945814386093,10.108146307257746,14.888477062168539,10243.008444788084,0,0
2026-03-12T20:09:49.173,318274,-0.34057518615722654,0.9618705169677734,9.492411032104492,-8.871623673651122,-2.2128763312529616,-11.790255697257109,1169.0,9785.0,-2794.0,5.436980315553196,4.142506534282493,-2.488327911888603,0.3517144627628437,0.0,-0.2661306155738785,0.04640607813715441,-0.0014160184745516241,-0.04389157584197516,0.005476449596540005,-0.0008282666810126697,-0.004604252711233038,9.547096603222204,14.920209705999788,10243.008444788084,0,0
2026-03-12T20:09:49.183,318284,-0.5728127471923827,1.2455834136962889,10.297461340332031,-8.869210852929765,-2.318773054021017,-11.793376704891173,1176.0,9781.0,-2806.0,5.371518944354716,4.104942448361448,-2.6062616789375146,0.18327436885402726,0.2680764311236138,0.5765984354488669,0.04751523949830926,0.0012457746491342462,-0.03755370761517419,0.005945650389531575,-0.0008149931255868059,-0.0049748099975973955,10.388325300040144,14.937313805810296,10243.26964401504,0,0
2026-03-12T20:09:49.193,318294,-0.5416881256103515,1.0839748016357422,9.49360813293457,-8.818210570061238,-2.2454663316505554,-11.67429681240232,1176.0,9781.0,-2806.0,5.30179364759427,4.069919720534062,-2.7230046470615377,0.1471476542207904,0.1953412051808534,-0.23914185215158845,0.04825191529990941,0.0031511989004286384,-0.03934594924463972,0.0064217413729881385,-0.0007826976554459371,-0.0053629012205537495,9.570633353009084,14.801762150790793,10243.26964401504,0,0
2026-03-12T20:09:49.203,318304,-0.4285620971679687,0.8708908538818358,8.802282403564453,-8.771290309822193,-2.178024147069731,-11.564743311312574,1182.0,9794.0,-2803.0,5.220625679323859,4.029025454896462,-2.8386520801746635,0.1970114867173544,0.0,-0.953386885284397,0.04946869971457671,0.0031039309169222087,-0.04814662082602144,0.006909511941763772,-0.0007509066879304383,-0.00583852306138515,8.855636163630733,14.677282130590406,10255.553081136093,0,0
2026-03-12T20:09:49.213,318314,-0.28490999755859375,1.0133458526611328,9.912593423461914,-8.9964163533291,-2.067196849450494,-11.698100431773423,1182.0,9794.0,-2803.0,5.141256042648843,3.972795540859977,-2.9556330844923977,0.4117735964029419,0.0,0.15266809332266185,0.05278263914342704,0.0030573719531683755,-0.0459206407944029,0.007429900994864845,-0.0007196126354303557,-0.006291431739859851,9.968327437573203,14.901488641363414,10255.553081136093,0,0
2026-03-12T20:09:49.224,318324,-0.16998831787109375,1.1049240661621094,10.723030685424805,-8.92548353286765,-2.0091381746651864,-11.650057275280329,1177.0,9797.0,-2808.0,5.064467942258158,3.9069650533183045,-3.072133657245201,0.5722734346419862,0.1235255134415093,0.9585896566119647,0.0576277928874992,0.004228237681269716,-0.03578972306485901,0.007998172744816097,-0.0006766529283590408,-0.0066426796415379324,10.781147448243104,14.812991832094577,10259.210593413121,0,0
2026-03-12T20:09:49.233,318334,-0.5231330627441406,1.0893617553710937,9.753977563476562,-8.996810703896776,-2.0825534621553863,-11.752199034721317,1177.0,9797.0,-2808.0,4.995471412220686,3.873613298295981,-3.189655647592414,0.15381144390353713,0.2276712003621223,0.0,0.058278418716636554,0.006407375439617574,-0.035252877218886126,0.00857237597505048,-0.0006119665947889022,-0.006988213205313067,9.828553074802285,14.946364571901476,10259.210593413121,0,0
2026-03-12T20:09:49.248,318344,-0.7721300354003906,0.996586441040039,8.675389715576172,-8.940480481731374,-1.8476565022561262,-11.787632868041172,1169.0,9780.0,-2808.0,4.930772627839138,3.8731046823657542,-3.3075319762728257,-0.16618785849359696,0.2572477448406759,-1.0454879060411866,0.05576729202972508,0.008845155094703967,-0.04502213993510852,0.009120918846452383,-0.0005229915287980207,-0.007430996170059488,8.766513334453844,14.90953769995145,10242.061560057135,0,0
2026-03-12T20:09:49.253,318354,-0.4369418029785156,1.045069024658203,9.770736975097655,-8.6106078968514,-1.753502518661002,-11.849500287378365,1169.0,9780.0,-2808.0,4.863572947697003,3.835926499851482,-3.4260269791466094,0.2335969348409001,0.19930577737949606,0.0,0.05723171245746207,0.010675639675471445,-0.04434680783608189,0.009683542735055976,-0.0004158188969112629,-0.007866589784171886,9.836177532051291,14.7522200531598,10242.061560057135,0,0
2026-03-12T20:09:49.263,318364,-0.023942016601562498,0.8696937530517578,9.871293444824218,-8.516881216322801,-1.9156613415583656,-11.979589044875901,1176.0,9775.0,-2807.0,4.782252293479238,3.7615947843259856,-3.5458228695953684,0.6277228118108291,0.0,0.0,0.06255630646693681,0.010515505080339374,-0.04368160571854066,0.010298796693925619,-0.0003103531822617613,-0.008295102435515936,9.909559764090723,14.822873463421459,10237.814708227532,0,0
2026-03-12T20:09:49.273,318374,-0.5219359619140624,1.006761798095703,9.386467608642578,-8.528213645846247,-2.172164531794672,-11.733417043237047,1176.0,9775.0,-2807.0,4.718344910627319,3.731243289190783,-3.663157040027739,0.10791113373244365,0.22480641384544908,-0.35521741556863695,0.06268088653719733,0.012572115680511956,-0.04652527317611363,0.010914679953738295,-0.0001844473934311851,-0.008751594812109796,9.454721605343034,14.667031132881341,10237.814708227532,0,0
2026-03-12T20:09:49.283,318384,-0.15442600708007811,1.1240776794433593,10.774506021118164,-8.538639481007817,-2.4081474668120735,-11.506938801729302,1167.0,9789.0,-2792.0,4.652803855703127,3.663804972605293,-3.778226428045032,0.5530240842665839,0.21038799310252498,1.0112647378215396,0.06718796046916523,0.014455855677364148,-0.035866436410929764,0.011574972998871518,-3.9848947820886096e-05,-0.009101148917042876,10.83408408773889,14.529871953850185,10246.056509701672,0,0
2026-03-12T20:09:49.295,318394,-0.8481459381103515,1.1462240447998047,9.243414059448241,-8.670182468868655,-2.4398859133695465,-11.318091014664127,1167.0,9789.0,-2792.0,4.603643154343854,3.6628595248050715,-3.8914073381916734,-0.22415202334653828,0.4168015334523384,-0.46588360104979465,0.06397224363216435,0.01834451294670922,-0.0399173933351063,0.012202480739757967,0.00014345258546455986,-0.009490822527543545,9.35274743418295,14.464587499474616,10246.056509701672,0,0
2026-03-12T20:09:49.303,318404,-0.6350619903564453,1.0492588775634766,9.134477883911133,-8.58144592013965,-2.434938942739007,-10.978497392027583,1178.0,9781.0,-2813.0,4.548352213680317,3.6431991701444377,-4.001192312111949,0.0,0.32428419136271935,-0.5959482258878754,0.06301265997768188,0.021263544537431366,-0.04518872246007528,0.01281977473219525,0.00035573194280803463,-0.009932767042392153,9.216449106646381,14.145584000736939,10245.419171512702,0,0
2026-03-12T20:09:49.316,318414,-0.4375403533935547,0.9995791931152344,9.485826977539062,-8.407125368479699,-2.352338949271106,-11.148998088470254,1178.0,9781.0,-2813.0,4.487547813461776,3.604776861562094,-4.112682292996652,0.18064371130255502,0.2419883611859801,-0.26304884243993243,0.06384681063434682,0.023328176727051796,-0.04710192272120748,0.01344478459570018,0.000588424696368474,-0.010393382483334624,9.548377536103425,14.16027591081142,10245.419171512702,0,0
2026-03-12T20:09:49.323,318424,-0.7056909393310546,1.0025719451904296,8.773551983642578,-8.20772607070864,-2.2470786625977106,-10.99854165602678,1190.0,9782.0,-2807.0,4.437173945387853,3.5971067099010625,-4.22266770955692,-0.12660056112084112,0.3310137017965,-0.9549401739854595,0.06164209294779132,0.02623873903884154,-0.05580155459414614,0.014047144319652915,0.0008499612746701325,-0.010940446631246808,8.85880153388795,13.906259321868284,10246.115019850207,0,0
2026-03-12T20:09:49.333,318434,-0.3711012573242187,0.9726444244384765,9.522338552856445,-8.404766521637315,-2.335605052516723,-10.923536372325126,1190.0,9782.0,-2807.0,4.375311805866377,3.5534480179254784,-4.331903073280172,0.24042768581358936,0.22584108268315062,-0.23325587001339976,0.0630856742588383,0.02806969261768795,-0.05726210159486593,0.014663323061179057,0.0011295275426461652,-0.011501554579548271,9.579075364292477,13.979227379297006,10246.115019850207,0,0
2026-03-12T20:09:49.346,318444,-0.7140706451416016,0.9594763153076171,8.634089736938476,-8.347019346247794,-2.3390005507544096,-11.0155071210757,1191.0,9786.0,-2800.0,4.3225799428478044,3.5475923715286664,-4.442058144490929,-0.15126465894401392,0.3186537846744143,-1.0972541518448153,0.06064943225435719,0.03078738700746561,-0.06721112346661437,0.015254547566338907,0.0014359640113081006,-0.0121614921484002,8.716535852699485,14.017312605401003,10248.135293798574,0,0
2026-03-12T20:09:49.354,318454,-0.30885201416015623,0.9576806640625,9.50617769165039,-8.137794383913825,-2.3762707505964955,-10.74890069773111,1191.0,9786.0,-2800.0,4.263875041073239,3.498744685087091,-4.54954715146824,0.2934195911146136,0.2256825316931388,-0.2545335609776931,0.06262987374302077,0.03254854913953104,-0.06871011219024543,0.015864965457465345,0.0017596880532007076,-0.012835744677032352,9.559286381639662,13.689748950389271,10248.135293798574,0,0
2026-03-12T20:09:49.365,318464,-0.297479556274414,1.0606313354492187,10.065822329711914,-8.101404979542183,-2.2251934807926785,-11.010939861424815,1166.0,9775.0,-2787.0,4.210343614029305,3.4495975524950144,-4.659656550082488,0.33663965481982555,0.2923728088802202,0.30944628131796925,0.06500632623685075,0.03494019306990825,-0.06463141463640976,0.01649851369111402,0.00210698089391589,-0.013468576764573054,10.125917839359797,13.850091887833345,10231.204718897965,0,0
2026-03-12T20:09:49.374,318474,-0.5985504150390625,1.1761515655517578,9.899425314331054,-8.067926727520272,-2.086202392573167,-11.252015892023024,1166.0,9775.0,-2787.0,4.169352702086007,3.428843949445753,-4.772176709002718,0.0,0.45188699404820587,0.17005931730504287,0.064031231343298,0.038867177065234446,-0.06198685914140893,0.017121687178542455,0.0024931570119036666,-0.014074356910631155,9.98700238602714,14.001840726767059,10231.204718897965,0,0
2026-03-12T20:09:49.387,318484,-0.8158242156982422,1.0558429321289062,8.67658681640625,-7.9737121015137715,-2.1729647377526793,-11.117708279197767,1185.0,9783.0,-2791.0,4.132343425057817,3.4359934362216458,-4.883353791794695,-0.25365236999281154,0.4510891445455819,-1.0433337732653332,0.060572287028719335,0.042727397483029915,-0.07133389392095132,0.017709682638780817,0.0029175105557472315,-0.014772908153990828,8.77858372580002,13.852988768157083,10242.118677305003,0,0
2026-03-12T20:09:49.393,318494,-0.18854338073730467,1.015740054321289,10.117297665405273,-7.994351718758524,-2.07717633922027,-11.194145275398531,1185.0,9783.0,-2791.0,4.07761008311011,3.3799276526452147,-4.9952952445486805,0.4350319939384262,0.25684707540723073,0.350700306989129,0.06394876786358204,0.04461643021354569,-0.06680948748829413,0.01833082114709922,0.0033603111830248058,-0.015425562025844896,10.169906022908346,13.911621379054317,10242.118677305003,0,0
2026-03-12T20:09:49.404,318504,-0.6985083343505859,1.0019733947753906,8.729259252929687,-8.140169434916379,-2.140270524765575,-10.820564872878844,1185.0,9791.0,-2808.0,4.034484415883617,3.3763265122782586,-5.103500893277469,-0.14532619144469955,0.39983973126686567,-1.0026259104580983,0.06155807335989802,0.04788560511332113,-0.07568321039398197,0.018927455478817502,0.0038353280669238586,-0.016166211735654933,8.814297004404464,13.70867391531751,10254.402469183662,0,0
2026-03-12T20:09:49.413,318514,-0.39264907226562495,1.121683477783203,10.17655415649414,-8.269443685001116,-2.193439126686768,-10.75004163426805,1185.0,9791.0,-2808.0,3.986861393547945,3.33702072343753,-5.2110013096201495,0.2400159906613542,0.3912342489613976,0.4287752332283432,0.06299885976751389,0.051020978388891074,-0.07032452619077306,0.019537886632416148,0.0043411923129619565,-0.0168525875405651,10.245711376880623,13.738932607753112,10254.402469183662,0,0
2026-03-12T20:09:49.424,318524,-0.8684966522216796,1.1049240661621094,8.968679418945312,-8.339595507274197,-2.1155249721615825,-10.690038303526604,1179.0,9793.0,-2812.0,3.9502635527637757,3.3484750261733427,-5.317901692655416,-0.2936017894154239,0.5138655279388892,-0.7478369234890465,0.05916189924525926,0.05531723916325577,-0.07663585199427858,0.02010937611924387,0.004889470339889919,-0.017601327114447375,9.078125034758978,13.72228909707317,10256.716531132173,0,0
2026-03-12T20:09:49.433,318534,-0.37768531188964843,1.0283096130371092,9.843760125732421,-8.604135183765433,-2.097502486583778,-10.351908409976184,1179.0,9793.0,-2812.0,3.895713829617018,3.310367995588778,-5.421420776755178,0.22696528743535072,0.3372066707610595,0.0,0.06051007883781858,0.05780896628280337,-0.0754863142143644,0.020693762430714434,0.005462092442715234,-0.01833783406633443,9.904528270848708,13.623239947614188,10256.716531132173,0,0
2026-03-12T20:09:49.445,318544,-0.2597708801269531,0.8319850769042968,9.121908325195312,-8.286536076381271,-2.0418974096082954,-10.450585005470773,1170.0,9786.0,-2785.0,3.833826401510981,3.2649668574529866,-5.525926626809886,0.2821683244558608,0.19393486541839478,-0.6495946940476625,0.06238178565114153,0.05885209021293251,-0.08075252723751841,0.021296262706938626,0.006044562731499715,-0.019126213979370903,9.16345412885452,13.492618431316581,10241.626872719002,0,0
2026-03-12T20:09:49.453,318554,-0.469263525390625,0.9995791931152344,9.453505255126952,-7.994344897587842,-1.9907407387908511,-10.258440644057501,1170.0,9786.0,-2785.0,3.7881120044126466,3.238774313777392,-5.628511033250461,0.10438457204680623,0.36435059673916403,-0.29641966987348667,0.06247424690103546,0.061558162237619285,-0.08246097307720948,0.021899084170773034,0.006653484209522032,-0.019930872886432856,9.517779595487797,13.15705907406063,10241.626872719002,0,0
2026-03-12T20:09:49.468,318564,-0.18375497741699218,1.1342530364990233,10.873865390014648,-8.198699744805205,-1.836359528468071,-10.08166783155729,1183.0,9795.0,-2793.0,3.7398579502536418,3.1865482502187534,-5.729327711566033,0.4638691007828607,0.3781549136056199,1.1113657849925307,0.0661062438402311,0.06435961570307036,-0.0702771054988749,0.02253758646256617,0.007289783286186183,-0.020613010297480184,10.934406447662864,13.123677841562612,10253.895016041466,0,0
2026-03-12T20:09:49.473,318574,-0.8200140686035156,1.0857704528808594,9.041104019165038,-8.167194009123229,-1.9528654003369668,-10.250744161130267,1183.0,9795.0,-2793.0,3.706033346063653,3.1966995878431956,-5.831835153177336,-0.25938373612829346,0.5281960079535025,-0.6826918956993726,0.06255972038176394,0.0685969521458663,-0.0759474640890306,0.023140020482717426,0.007967777054837201,-0.02135111245343212,9.142914329382016,13.251207383157125,10253.895016041466,0,0
2026-03-12T20:09:49.483,318584,-0.19931728820800781,0.7906850982666015,9.056666329956053,-8.162598976198248,-2.0502947048953755,-10.006294384337409,1191.0,9783.0,-2792.0,3.6448839214100026,3.147393309361718,-5.93189809702071,0.3204321780414904,0.18118707582759785,-0.7208033261347762,0.06477758152974616,0.06935269056058013,-0.08190816489012269,0.023764008501716873,0.00865264265648256,-0.022148023908231014,9.09330057339793,13.075077733198265,10243.087132305378,0,0
2026-03-12T20:09:49.493,318594,-0.22685060729980466,1.052850180053711,10.372280142211913,-8.41690813127312,-2.07651503094277,-10.049693272614807,1191.0,9783.0,-2792.0,3.5942444432472427,3.0984263057168695,-6.0323950297468585,0.37681105620223476,0.3629486985732501,0.6082639083490644,0.06751750671039199,0.07188744488311793,-0.07468814291953256,0.02441474438525197,0.009362145588208425,-0.022872010432088915,10.428046319814417,13.2722489442318,10243.087132305378,0,0
2026-03-12T20:09:49.503,318604,-0.7003039855957031,0.9409212524414062,8.56166513671875,-8.582579871015172,-2.012832852857592,-10.084742201049524,1193.0,9773.0,-2806.0,3.5498663551872083,3.1018473050090534,-6.133242451757353,-0.18869813812651415,0.43163265041721743,-1.1778636046484614,0.06464606744918994,0.07506071481648076,-0.08516977728152691,0.025036143854684126,0.01010263998363686,-0.02369998449669928,8.641635747290117,13.394558544331607,10237.598058138443,0,0
2026-03-12T20:09:49.514,318614,-0.020350714111328123,0.8445546356201171,9.675567459106444,-8.569144213041275,-1.9347330538972773,-10.024304288380197,1193.0,9773.0,-2806.0,3.487040583711014,3.0380632864234633,-6.2334854946411555,0.5189609976647308,0.19932565566503435,-0.11019492065639724,0.06878814226444968,0.07589816180253414,-0.08497765059076953,0.025698301252051293,0.01085075998006054,-0.024525211241604367,9.712378305020446,13.328919723660244,10237.598058138443,0,0
2026-03-12T20:09:49.523,318624,-0.016160861206054686,0.9798270294189453,10.39322940673828,-8.615319993071143,-1.7555641656830563,-10.066262384334172,1190.0,9803.0,-2795.0,3.4306591365843238,2.9765305031416576,-6.334148118484498,0.5617089792985812,0.2959701088252066,0.6133511707946351,0.07328915357657395,0.07767499494742441,-0.07766147679958084,0.026404761595029216,0.011615882419605249,-0.025276524183590575,10.439326591409248,13.365454818789479,10262.891113131816,0,0
2026-03-12T20:09:49.533,318634,-0.5111620544433594,1.1845312713623046,10.084377392578125,-8.794387076552281,-1.8053629348674363,-9.890229686270365,1190.0,9803.0,-2795.0,3.393065221789632,2.957329334355064,-6.433050415347202,0.0,0.5805176392779771,0.34302873991898863,0.07218981627292534,0.08222796877010112,-0.07311772155938508,0.02709953309800071,0.012425723945198953,-0.025981693697785243,10.166566203722805,13.357290991290357,10262.891113131816,0,0
2026-03-12T20:09:49.579,318644,-0.6602011077880859,1.0019733947753906,8.903437423706054,-8.959128793354928,-1.8511778025170658,-9.728279604051663,1189.0,9776.0,-2793.0,3.3502357191901964,2.9579496031095682,-6.530333211387719,-0.14177408891691412,0.49931357913924745,-0.8377258615199121,0.06971049425299986,0.08591278799307119,-0.08027255547196543,0.02776884140249018,0.013271566973304534,-0.02675763483325239,8.983930884886183,13.354110679751791,10236.442057668279,0,0
2026-03-12T20:09:49.579,318654,-0.4321533996582031,1.0857704528808594,9.891045608520507,-9.203374099642632,-1.9372299197791152,-9.701236747922652,1189.0,9776.0,-2793.0,3.3032957217579515,2.9318009585166926,-6.6273455788669455,0.13548396816486918,0.501746431340985,0.13962226050166748,0.06999935392562882,0.08956629852188382,-0.07769318787394452,0.02844036610680472,0.014153062728564848,-0.02750703214527984,9.959841226998453,13.511807762816384,10236.442057668279,0,0
2026-03-12T20:09:49.580,318664,-0.5135562561035156,1.1031284149169922,9.715670336914062,-9.135396854598051,-1.904202745708981,-9.603186588576644,1175.0,9773.0,-2795.0,3.260927947351655,2.9141646672926176,-6.723377444752712,0.0,0.5468490664360482,0.0,0.06894936361674439,0.09360926734845064,-0.07652779005583536,0.029100729883229193,0.015074066246647306,-0.028244037735792357,9.79157200982417,13.390394185489235,10232.505998043685,0,0
2026-03-12T20:09:49.580,318674,-0.5201403106689453,1.1378443389892579,9.967061511230469,-9.102126081839963,-2.0006470138571406,-9.761760929783195,1175.0,9773.0,-2795.0,3.2200488517919714,2.8952670208561067,-6.820995054050544,0.0,0.5737265882053274,0.2220773221784924,0.06791512316249322,0.09785633523204634,-0.07319241158153969,0.029750101233739272,0.0160365769693688,-0.028946985889756145,10.045275051047854,13.496046240807285,10232.505998043685,0,0
2026-03-12T20:09:49.583,318684,-0.6063315704345703,1.0013748443603514,9.077017044067382,-9.134931605048862,-1.97230256982174,-9.858868835888345,1192.0,9776.0,-2814.0,3.1762000856023818,2.8893901376609614,-6.9195837424094275,0.0,0.510868096714082,-0.6691219177237553,0.06689639631505583,0.10142054095619935,-0.07868537629739558,0.03038864613169294,0.017033731596551863,-0.02970410581307737,9.15219252258786,13.584338319516943,10242.540505167652,0,0
2026-03-12T20:09:49.593,318694,-0.3651157531738281,0.9756371765136718,9.497199435424804,-9.365112686401051,-1.9998842178945375,-9.792110548529472,1192.0,9776.0,-2814.0,3.124291113514966,2.859202115960476,-7.017504847894722,0.16597283903247106,0.4395849331400591,-0.26405115938513113,0.06752778283479983,0.10422914443328594,-0.08010599957287819,0.031032860036080898,0.01805794701784384,-0.030474660642997344,9.554160064058195,13.696360885600075,10242.540505167652,0,0
2026-03-12T20:09:49.609,318704,-0.7960720520019531,1.2401964599609374,9.813832604980469,-9.596391476367016,-1.9813568950971208,-9.842888046110529,1188.0,9790.0,-2799.0,3.090938587568956,2.86581410711476,-7.115933728355827,-0.21160322984532887,0.7411431254424883,0.0,0.06443057427830134,0.10996596705239516,-0.07890440957928502,0.03164548861308505,0.019138449081679422,-0.0312324410340514,9.92386660379189,13.888806629862191,10251.333815655405,0,0
2026-03-12T20:09:49.618,318714,-0.2771288421630859,0.9157821350097656,9.39843861694336,-9.467704548501557,-1.9935800508064243,-9.904237490226564,1188.0,9790.0,-2799.0,3.0347974380579723,2.828405382649744,-7.214976103258093,0.23958412989186395,0.3899189316193217,-0.3707256456040451,0.06582401934356168,0.11215717902305955,-0.08137249104479558,0.03227142507771415,0.020239760851038107,-0.03201411977855485,9.447015706053097,13.845783152263355,10251.333815655405,0,0
2026-03-12T20:09:49.638,318724,0.009576806640625,1.0301052642822266,10.672752450561523,-9.305410135840946,-2.0194595004004467,-10.087508247106,1181.0,9786.0,-2804.0,2.980311549440169,2.7653200088597614,-7.315851185729152,0.5824112299444248,0.40292218160881377,0.8922894014779157,0.07057340966836084,0.11444360482656048,-0.07136285307456616,0.03294418201522335,0.021362812702404407,-0.03269502056099122,10.722352980651886,13.8717950210274,10248.071672270837,0,0
2026-03-12T20:09:49.645,318734,-0.5201403106689453,1.0462661254882812,9.552864624023437,-9.156099276193183,-2.043268594026948,-10.25611734343508,1181.0,9786.0,-2804.0,2.939174391994771,2.7501856472743262,-7.418412359163503,0.0,0.5580581938768101,-0.19879672288168848,0.06951480852333543,0.11822382396384866,-0.0722505579988323,0.03360569077035625,0.022522505891100848,-0.03338410861483856,9.624055344450461,13.899533929781676,10248.071672270837,0,0
2026-03-12T20:09:49.650,318744,-0.0718260498046875,0.8062474090576172,9.439140045166015,-9.072391821902606,-1.9041973504072311,-10.172213321813931,1178.0,9785.0,-2796.0,2.8789550506960566,2.6966924517427087,-7.520134492381643,0.4138217194437777,0.27938284102521493,-0.346033980365938,0.0725482303320066,0.11920238758848929,-0.07457523433545431,0.034296841900602636,0.023690815237218756,-0.034095731097234905,9.473782700605886,13.762564615067644,10244.585155095348,0,0
2026-03-12T20:09:49.657,318754,-0.42317514343261714,1.140238540649414,10.269329470825195,-9.039283402979667,-1.9323493672527015,-10.402338695093206,1178.0,9785.0,-2796.0,2.8417706835798113,2.6723878367486895,-7.624157879332575,0.14117169373096633,0.6164238452068482,0.5150960300043206,0.07285054806027652,0.12348612664994939,-0.06838290992487993,0.03499032203382419,0.02490075082721453,-0.03474478063628722,10.34109998558956,13.91586392732909,10244.585155095348,0,0
2026-03-12T20:09:49.664,318764,-0.6721721160888672,0.9469067565917968,8.619125976562499,-8.930774877082758,-1.9533711739700463,-10.272590623875995,1184.0,9780.0,-2798.0,2.8052175272075397,2.679551616737748,-7.726883785571335,-0.19394211465052885,0.555061373087491,-1.1295494654059617,0.06984746001006466,0.12710118927511194,-0.07848322851025545,0.035653107837290914,0.026145590957245682,-0.035494083308468385,8.696998353407974,13.751382365935967,10241.04779795505,0,0
2026-03-12T20:09:49.674,318774,-0.27952304382324217,1.0289081634521484,10.064625228881836,-8.826068984477113,-1.8800283093207355,-10.211758983722012,1184.0,9780.0,-2798.0,2.7637586570369406,2.6445792484013375,-7.829001375408555,0.25905176977749245,0.5118995729860918,0.2980180869013829,0.07135140804222198,0.13023688222989824,-0.07437050192662299,0.03633025529579542,0.027420511819765122,-0.03620155053940688,10.12094195906149,13.62769319086042,10241.04779795505,0,0
2026-03-12T20:09:49.683,318784,-0.7320271575927734,1.0396820709228516,8.978854776000976,-8.856568831572602,-1.9345040933555644,-10.1753060699023,1179.0,9784.0,-2808.0,2.7341399870197765,2.6553071257231835,-7.930754436107578,-0.22626132712421426,0.6476051325157484,-0.7641918684544322,0.06805246284941514,0.1346622395517299,-0.08078223430199981,0.03697376914436529,0.028738367081067136,-0.036972363509544456,9.068441743572448,13.627838096036484,10247.0269346772,0,0
2026-03-12T20:09:49.694,318794,-0.3699041564941406,1.1043255157470702,10.135852728271484,-8.962677471388258,-1.960231570765168,-10.214940120895482,1179.0,9784.0,-2808.0,2.698115311476571,2.627335870432937,-8.032903837316534,0.18349858902122276,0.6062766595891931,0.37620968374281283,0.06883913700853296,0.1386141310554075,-0.0758648354026031,0.037624498353936164,0.030094383883229592,-0.037693280851706916,10.202542548743924,13.730152837482738,10247.0269346772,0,0
2026-03-12T20:09:49.703,318804,-0.7535749725341796,1.149216796875,9.446322650146485,-8.821273029774758,-1.8668276792502962,-10.40750100878482,1181.0,9780.0,-2811.0,2.674799733223565,2.6374551042940975,-8.136978847404382,-0.21283031592868756,0.7447540130945084,-0.29236438242884333,0.06571017134150739,0.14387074611855732,-0.07760665203848816,0.03824331846728389,0.031501558253070744,-0.03843087802471971,9.545762729929967,13.77011186220735,10244.260929906071,0,0
2026-03-12T20:09:49.713,318814,-0.699705435180664,1.0510545288085937,9.115922821044922,-8.69118094349034,-1.780896099056614,-10.58465702564301,1181.0,9780.0,-2811.0,2.6477259498545016,2.645757997857361,-8.242825417660812,-0.18336101531957377,0.6619481753662633,-0.6293652409338257,0.06291841277048699,0.14823287445413666,-0.08264179988110901,0.038833630092393774,0.03295090311061449,-0.039218038727507266,9.202953449724607,13.81098046695522,10244.260929906071,0,0
2026-03-12T20:09:49.723,318824,-0.07122749938964844,0.8984241729736328,9.868899243164062,-8.615398663133064,-1.8433024599125727,-10.220811292859862,1181.0,9781.0,-2806.0,2.601172911402558,2.5940923204678956,-8.345033530589411,0.43816055881438504,0.39015287067700577,0.0,0.06629051808325137,0.1498523871134931,-0.08140217288289237,0.03945703873795306,0.034414977554767676,-0.039992028395879856,9.909965268505074,13.493992795599322,10243.844883636222,0,0
2026-03-12T20:09:49.733,318834,-0.6338648895263671,1.1695675109863282,9.862315188598632,-8.511532623740957,-1.895838263119567,-10.27631712113839,1181.0,9781.0,-2806.0,2.5797631384364985,2.5912854713551465,-8.447796701800796,0.0,0.7438546478483297,0.11684188626399994,0.0652961603120026,0.15493156958809676,-0.07903024770994857,0.040069890340732016,0.035928328957398,-0.04074154854210636,9.9516297027267,13.477502880694066,10243.844883636222,0,0
2026-03-12T20:09:49.743,318844,-0.15023615417480468,0.8277952239990234,9.265560424804686,-8.533049038231924,-1.8661224215821968,-10.151772727057075,1179.0,9779.0,-2801.0,2.533595848376767,2.5479137036668402,-8.549314429071366,0.32216354965570576,0.37365923706756415,-0.5160625458918933,0.06749002887143125,0.1562881395293908,-0.08292801007133449,0.040704045838816885,0.03745371914233921,-0.041529257814176886,9.303678080232766,13.392304815938981,10240.3360784693,0,0
2026-03-12T20:09:49.781,318854,0.03890577697753906,0.8601169464111328,10.011952792358398,-8.60650267614898,-1.9021984815141577,-10.164021152794948,1179.0,9779.0,-2801.0,2.484470375449235,2.4876309026948644,-8.650954640599315,0.5332068964927131,0.3490736004262047,0.22202646124936543,0.07172976636881301,0.15738219240064807,-0.07949712927695822,0.04137992215900251,0.03898851352527934,-0.042281904877839525,10.0489060866046,13.453533861855682,10240.3360784693,0,0
2026-03-12T20:09:49.794,318864,-0.21248539733886718,1.0390835205078124,10.230423693847655,-8.683836120593647,-1.7451445542125374,-10.038704338620134,1185.0,9775.0,-2789.0,2.4486604643644254,2.45088332933117,-8.751341683985515,0.3154991843121976,0.5595606146363997,0.4585224654561326,0.07376148683875595,0.16053313156880689,-0.07378822605306094,0.042075419490362684,0.040553250996126444,-0.04297676735123176,10.285252236202702,13.387685538682751,10233.932333174771,0,0
2026-03-12T20:09:49.794,318874,-0.411802685546875,1.139639990234375,10.31661495361328,-8.794007279726642,-1.6640695752413883,-9.79658360128662,1185.0,9775.0,-2789.0,2.4198651476603055,2.4318093677058132,-8.849307519998382,0.1357764069979861,0.6903655221526495,0.5570300931622647,0.07399246214510478,0.1649252349884784,-0.06719465624461671,0.04277252876770191,0.04216030084266522,-0.043605065199764245,10.387536034126773,13.269391163279767,10233.932333174771,0,0
2026-03-12T20:09:49.794,318884,-0.7493851196289062,1.0378864196777342,9.000402590942382,-8.82707206320217,-1.4870415701976871,-9.973832522939789,1166.0,9780.0,-2811.0,2.3952911067520946,2.4516101409086413,-8.94904584522778,-0.2549788790968405,0.7091164278156059,-0.7469495226259486,0.07037103325382434,0.16943615327763492,-0.07354418919881306,0.043432762861139916,0.04381080771306613,-0.04429616658466062,9.090986364345458,13.401709929561664,10242.542506624026,0,0
2026-03-12T20:09:49.794,318894,-0.3190273712158203,0.9642647186279296,9.454103805541992,-8.828223371316728,-1.519297756776994,-10.068608847933875,1166.0,9780.0,-2811.0,2.3597593060321125,2.4287119595491227,-9.049731933707118,0.1725105039592659,0.5539453752675447,-0.31586244972881694,0.07101469621901574,0.1723509729248557,-0.07555227149065971,0.04409876691350674,0.04548878312487237,-0.04500663761026765,9.508504807651887,13.476745812706524,10242.542506624026,0,0
2026-03-12T20:09:49.813,318914,-0.4291606475830078,0.9307458953857422,9.111732968139648,-9.004892330879683,-1.436778326478737,-10.180193310830871,1189.0,9788.0,-2790.0,2.234452890936933,2.404217050729378,-9.253335799923736,0.0,0.5745918327859827,-0.6556001142823984,0.0699494757757305,0.18108516743686673,-0.08733430966966306,0.04545225867259233,0.04906137598713609,-0.046706570479857254,9.169195409952515,13.667068218753442,10247.085683256484,0,0
2026-03-12T20:09:49.825,318924,-0.1149216796875,1.0324994659423827,10.401010562133788,-9.162549724897112,-1.4193970359701942,-10.092607114257085,1189.0,9779.0,-2792.0,2.195721933687589,2.3636218994530402,-9.354261871066306,0.4141755894056235,0.5735529711848313,0.622145636296537,0.07297986319473992,0.18401838669148432,-0.07989616050709723,0.04613587524723519,0.05085065829419688,-0.0474580265528433,10.452764364188647,13.705025493215466,10239.034427132277,0,0
2026-03-12T20:09:49.836,318934,-0.43454760131835934,1.0989385620117187,9.964667309570311,-9.068570137149244,-1.2765769804096518,-10.133979032921395,1189.0,9779.0,-2792.0,2.1678609110247677,2.3528231610588453,-9.455601661395521,0.0,0.7153083221338111,0.20186531862673363,0.07188516524681883,0.1883038978641301,-0.07670934471101745,0.046807872172803675,0.05268096357556535,-0.04817689487995352,10.034495112924574,13.658921778786105,10239.034427132277,0,0
2026-03-12T20:09:49.844,318944,-0.17357962036132812,0.7888894470214843,9.126098178100586,-9.216255257884622,-1.3256703341720015,-10.113504612726707,1179.0,9773.0,-2805.0,2.118671147549019,2.3207568796818423,-9.556736707522788,0.26917762704343584,0.41199190323852486,-0.6581009086236715,0.07345828739449439,0.18953745964306762,-0.08204099849029535,0.04749491259170187,0.054521761833824026,-0.04894830755999161,9.161776268855155,13.746990156577331,10235.701978858118,0,0
2026-03-12T20:09:49.867,318954,-0.31184476623535157,0.9900023864746094,9.701903677368163,-9.342369471400195,-1.4927874391455584,-10.328814487611009,1179.0,9773.0,-2805.0,2.082264942420299,2.2987140626315035,-9.660024852398898,0.18447501168271646,0.6145952991028445,0.0,0.07417349194865173,0.19274816144458462,-0.08081038351294093,0.04818841086367719,0.0563927942048216,-0.049706654983725895,9.757268411209342,14.006880109364262,10235.701978858118,0,0
2026-03-12T20:09:49.876,318964,0.052073886108398436,0.9193734375,10.366893188476562,-9.580345767346715,-1.6953156635261089,-10.639094694455787,1183.0,9786.0,-2779.0,2.032683629877175,2.2432343731759583,-9.766415799343456,0.5456661830257405,0.46526607093132843,0.5763269087877188,0.0784357014722255,0.19443980982158943,-0.07392140770868777,0.04892379511052105,0.058278855110734454,-0.05039542319175196,10.40771029518389,14.416915625004968,10241.490418879472,0,0
2026-03-12T20:09:49.881,318974,-0.3908534210205078,1.0624269866943359,10.032902056884765,-9.735869325471173,-1.7499343128830445,-10.607479314021274,1183.0,9786.0,-2779.0,1.9969665858878671,2.225627421579725,-9.872490592483668,0.12236967251533154,0.7015774636729365,0.2647677704798408,0.07846450722441813,0.198433750691444,-0.07020462405383103,0.049658731742582465,0.06020292942503125,-0.05104637196285798,10.09656581129556,14.504069739884914,10241.490418879472,0,0
2026-03-12T20:09:49.883,318984,-0.8164227661132812,1.0708066925048827,8.833407025146483,-9.878950998945674,-1.8001834702914252,-10.661319993289817,1165.0,9790.0,-2785.0,1.9733815223047868,2.2531467178989644,-9.979103792416566,-0.3274580204786844,0.8353747732027599,-0.916364683387874,0.07406207811433682,0.20368568594711953,-0.07817774682439413,0.05034895317120211,0.06217754649821794,-0.05177632128167082,8.935449220808573,14.645752878073608,10244.879208658343,0,0
2026-03-12T20:09:49.893,318994,-0.4626794708251953,1.1581950531005858,10.25376716003418,-9.737415406834899,-1.7244614755949406,-10.710853418216876,1165.0,9790.0,-2785.0,1.9445336051563356,2.2408729896736057,-10.086212326598735,0.0,0.8076089666550581,0.4907365790320881,0.07295114694262177,0.20858534897946504,-0.07217132531856216,0.0510273861759877,0.06419913658802458,-0.052445536500321584,10.329338267572863,14.57783959071456,10244.879208658343,0,0
2026-03-12T20:09:49.903,319004,-0.6039373687744141,1.121084927368164,9.626486325073241,-9.475495345019814,-1.7621143136449062,-10.590570510613185,1195.0,9798.0,-2804.0,1.9216717313622387,2.243390470402369,-10.192118031704867,0.0,0.8249432079403713,-0.13174594520736882,0.07185687973848244,0.21358225934298572,-0.07238645299907631,0.051694209018399155,0.06626862422227298,-0.053116231629282036,9.710345551348642,14.319575504466396,10261.152225749309,0,0
2026-03-12T20:09:49.913,319014,-0.5925649108886718,1.0708066925048827,9.364919793701171,-9.312577668637742,-1.5772427295289235,-10.918934625861692,1195.0,9798.0,-2804.0,1.8989628164508554,2.2481615432656445,-10.301307377963484,0.0,0.7876206753557593,-0.3953764414439398,0.0707790265424052,0.21813658910509517,-0.07519511415231298,0.05234959728453938,0.0683815401232106,-0.05381431458803436,9.444547786357255,14.437275741153647,10261.152225749309,0,0
2026-03-12T20:09:49.923,319024,-0.7044938385009765,1.2138602416992186,9.87608184814453,-9.401717796610138,-1.4900877014105123,-10.855175953353731,1188.0,9790.0,-2802.0,1.8829768884157234,2.260508986457569,-10.40985913749702,-0.14731033967611756,0.9306292660953706,0.12405942878831233,0.06826633429845937,0.22403123853955814,-0.0728452020664634,0.052979228366896454,0.07055123065609757,-0.054488223842090296,9.97530756047721,14.437711171209228,10252.15333478777,0,0
2026-03-12T20:09:49.936,319034,-0.36571430358886714,1.0390835205078124,9.755773214721678,-9.332507202149618,-1.4440514170049885,-11.074566755134214,1188.0,9790.0,-2802.0,1.854001490533029,2.244399087094511,-10.520604805048363,0.14943754578485166,0.7075214068341873,0.0,0.06871429910996327,0.22763985581878152,-0.07175252403546645,0.053612704986638095,0.0727548015850711,-0.055150543333362514,9.817767186663236,14.554277858659033,10252.15333478777,0,0
2026-03-12T20:09:49.948,319044,-0.18136077575683593,0.8265981231689452,9.124302526855468,-9.361516382075209,-1.4992590109616626,-11.256894097650306,1182.0,9785.0,-2800.0,1.8116275415774938,2.212976248406291,-10.633173746024866,0.26820471310497496,0.49677395241658556,-0.6605943112421784,0.07032540104739782,0.22911848141280317,-0.0771830901406699,0.05426164303811496,0.07497094041279993,-0.05586645186053445,9.163462925651558,14.717453287832326,10246.138248140125,0,0
2026-03-12T20:09:49.972,319054,-0.4285620971679687,1.0899603057861327,9.903016616821288,-9.358936534923826,-1.569562192523754,-11.370976716179745,1182.0,9785.0,-2800.0,1.7864809711539476,2.201268297653177,-10.746883513186663,0.0,0.7757293698895049,0.1346643729398913,0.06927052003168685,0.23332263848502274,-0.07469889971510192,0.054899393890193396,0.07722686263085252,-0.05655682741682778,9.972031741443514,14.810547931148053,10246.138248140125,0,0
2026-03-12T20:09:49.981,319064,-0.6512228515624999,1.0606313354492187,9.312247357177734,-9.27851429505675,-1.3513142902925854,-11.471054676446341,1200.0,9784.0,-2794.0,1.7657571149804132,2.214558937424687,-10.861594059951127,-0.13891449993080857,0.8139439862219139,-0.44795464100899096,0.06686315440689308,0.23784014717203325,-0.07799076943331396,0.05551245740882806,0.07952565883847028,-0.05727939837604976,9.395050871251186,14.815598982988938,10245.637705872681,0,0
2026-03-12T20:09:49.981,319074,-0.842758984375,1.0684124908447266,8.86812294921875,-9.204525834379039,-1.1505262202399105,-11.56312639989161,1200.0,9784.0,-2794.0,1.7516526189896073,2.2508564906475472,-10.977225323950043,-0.3319476608851137,0.8760769676352997,-0.8837775647351158,0.06259052263107132,0.24290190309566045,-0.08552611690445515,0.05608222427250364,0.08187272319155746,-0.05807652488554922,8.971920229181602,14.82406484602253,10245.637705872681,0,0
2026-03-12T20:09:49.983,319084,-0.4878185882568359,0.9510966094970703,9.139266287231445,-9.073041816409205,-1.2145816835963275,-11.428320190339305,1188.0,9796.0,-2794.0,1.7251266294281284,2.250714213297162,-11.091508525853436,0.0,0.6874532198505189,-0.6308053390390125,0.06165166479160525,0.24602978876475318,-0.0904566577404226,0.056642042179499266,0.08424868805812578,-0.05892211037149049,9.20156182419979,14.642465599800968,10255.70065865809,0,0
2026-03-12T20:09:49.993,319094,-0.23104046020507812,0.833182177734375,9.1416604888916,-9.127686275974517,-1.2393663684208163,-11.392103355599964,1188.0,9796.0,-2794.0,1.6874563228503079,2.2263723704761302,-11.205429559409437,0.2322091107700634,0.5285743932997921,-0.6423596963632292,0.0630141495608163,0.24754579970728482,-0.09542705088349406,0.057214911491432326,0.08663742190914343,-0.0598165044994451,9.18245766283231,14.65028001822689,10255.70065865809,0,0
2026-03-12T20:09:50.003,319104,-0.3806780639648437,0.9379285003662109,9.440337145996093,-9.109666495847774,-1.237778034556907,-11.129515574956844,1191.0,9786.0,-2788.0,1.6575228168019824,2.215252850065048,-11.316724715159005,0.1160822715821084,0.6544169057720323,-0.335490909903319,0.06321234769248783,0.25027861923353006,-0.09730023058278933,0.05778918793338885,0.08905106789337726,-0.060728717298467724,9.494450541777386,14.435519909639902,10244.863151843465,0,0
2026-03-12T20:09:50.013,319114,-0.18734627990722655,0.9510966094970703,9.964068759155273,-9.205283420082392,-1.4070484747191836,-11.078178719204198,1191.0,9786.0,-2788.0,1.6237756348301535,2.184248924744909,-11.427506502351047,0.32201410241265627,0.6167957442758673,0.18025240034699586,0.06543600138586518,0.2525998780261444,-0.09406524098062959,0.05838510439930025,0.09148548960696506,-0.061607700338565746,10.011111308259737,14.472148147005756,10244.863151843465,0,0
2026-03-12T20:09:50.024,319124,-0.536899722290039,1.2078747375488281,10.375871444702147,-9.20544611232946,-1.4018016699123805,-11.094363446058106,1193.0,9803.0,-2805.0,1.608345695838184,2.18181187570453,-11.538450136811628,0.0,0.9257370353123153,0.6119319639088179,0.0644544613650772,0.25792938965357853,-0.08662673252141828,0.058970619363938076,0.09397071871999735,-0.06241149369611615,10.459729008458545,14.484135677423108,10265.967221845198,0,0
2026-03-12T20:09:50.039,319134,-0.7062894897460937,1.0229226593017577,9.077017044067382,-9.025107984318714,-1.4847794875389022,-10.772668028910044,1193.0,9803.0,-2805.0,1.5917693886770317,2.2007804342433186,-11.646176817100729,-0.1933917328189122,0.8264396474432432,-0.6843119677113627,0.061582735876334754,0.2622008793360908,-0.09206780441555393,0.05952686027597872,0.0964961347858449,-0.06326883956853141,9.161738592021088,14.131791136169905,10265.967221845198,0,0
2026-03-12T20:09:50.044,319144,-0.16220716247558592,1.1067197174072265,10.759542260742187,-9.171392028500046,-1.6733142017065217,-10.652318001231386,1186.0,9779.0,-2806.0,1.5656459529702225,2.164174187612447,-11.752699997113043,0.40553257735463843,0.7453550087541223,0.977545778860037,0.06465349072513292,0.2656096129822776,-0.08105796142754926,0.06011322178804682,0.09905307868475201,-0.0640153397636241,10.817526951995701,14.155786483181538,10242.513021714934,0,0
2026-03-12T20:09:50.053,319154,-0.411802685546875,1.0720037933349609,9.923965881347655,-9.032802617439556,-1.710180772887073,-10.507449634303606,1186.0,9779.0,-2806.0,1.5456673902117868,2.150302925885735,-11.857774493456079,0.12780316197305472,0.7946228589388828,0.15106626743511953,0.06494254950969051,0.2694525039480914,-0.07835408927190009,0.06070188463586058,0.10164585612050868,-0.06473408177568675,9.990188806969591,13.961473389975804,10242.513021714934,0,0
2026-03-12T20:09:50.063,319164,-0.8553285430908203,1.1767501159667968,9.330802420043945,-8.905300359263904,-1.7440980183731805,-10.374170736730049,1193.0,9781.0,-2789.0,1.5425834499846207,2.1788175973715256,-11.961516200823379,-0.29632056724449435,1.008449567473332,-0.42179916766161796,0.061049653679686885,0.27534394462848233,-0.08133349973428852,0.061251068791484786,0.1042948962712267,-0.0654818693562566,9.443526965808466,13.782948554689781,10240.592316853552,0,0
2026-03-12T20:09:50.074,319174,-0.2765302917480469,0.9085995300292968,9.342773428344726,-8.97824218418133,-1.5704238354399114,-10.793017565596523,1193.0,9781.0,-2789.0,1.5143285778291227,2.155977763307397,-12.069446376479345,0.21253611096191607,0.6308863930738549,-0.43935326069578196,0.062227389567466464,0.27742801643083254,-0.08444112685612765,0.06181146934447229,0.10696210725909949,-0.06625995434419306,9.3909231410766,14.126722617507784,10240.592316853552,0,0
2026-03-12T20:09:50.083,319184,-0.63206923828125,1.2581529724121092,10.237606298828124,-9.001446224080969,-1.4740582212876454,-10.812502989617094,1180.0,9793.0,-2783.0,1.508043102361027,2.161718205097934,-12.177571406375515,0.0,1.0175949148396746,0.4770565990134621,0.061293978723954465,0.28328990609554083,-0.07847550245300314,0.06236198472258012,0.10968521131373485,-0.06697766465935437,10.33397518643122,14.145992459535874,10248.918869812562,0,0
2026-03-12T20:09:50.093,319194,-0.27174188842773433,1.0085574493408203,9.783905084228515,-8.969135404203271,-1.3756457587065851,-10.971892994350165,1180.0,9793.0,-2783.0,1.4853582444986142,2.1394807799274917,-12.287290336319016,0.25298079926225736,0.7171963653023299,0.0,0.06286642991582839,0.2861049417023357,-0.07729836991620809,0.06292765837271667,0.11243371447002744,-0.06768289771015794,9.839503568765029,14.237985357200303,10248.918869812562,0,0
2026-03-12T20:09:50.103,319204,-0.4070142822265625,0.8978256225585937,8.82921717224121,-8.910141157232863,-1.2655940980100584,-10.89901960358264,1194.0,9789.0,-2796.0,1.462408019614846,2.1343104055886783,-12.396280532354842,0.0,0.6730961488248801,-0.9483760785149862,0.06192343346709096,0.28844336464272574,-0.08548039874083758,0.0634833458146802,0.11520282996833824,-0.06846916399586875,8.884077180498725,14.13438969966555,10250.257216284868,0,0
2026-03-12T20:09:50.113,319214,-0.508169302368164,1.0767921966552734,9.592967501831055,-8.704646937824966,-1.2472733994375464,-10.822219986515542,1194.0,9789.0,-2796.0,1.4507991197707215,2.1352112858507573,-12.504502732219997,0.0,0.8461638937285927,-0.1772389257073943,0.060994581965084595,0.29245142852631145,-0.08594399617794285,0.06402919834269671,0.11800921690934775,-0.06925927535369052,9.666578658751698,13.944425935895191,10250.257216284868,0,0
2026-03-12T20:09:50.123,319224,0.1005564697265625,0.8672995513916015,10.081983190917969,-8.603397134018483,-1.1767598201654696,-10.932052143691859,1185.0,9787.0,-2786.0,1.4180448843327134,2.0830519389615434,-12.613823253656916,0.5911889751238011,0.5005120770572214,0.2833791592151691,0.06590287464057777,0.29299470105743036,-0.0818635515170043,0.06462353886201339,0.12081822475600214,-0.0700078329579917,10.119718631335578,13.961123521851352,10244.578566246637,0,0
2026-03-12T20:09:50.134,319234,-0.43993455505371093,1.0438719238281249,9.631274728393555,-8.61756438768725,-1.1704239126010125,-10.955048947806265,1185.0,9787.0,-2786.0,1.4046778271988465,2.0792792224573233,-12.723373743134978,0.0,0.807316458925907,-0.14307480795029015,0.0649143315209691,0.29655184766198905,-0.08204488510255958,0.06520740949504586,0.12365995948938942,-0.07075745352720829,9.697662806051738,13.98733017984329,10244.578566246637,0,0
2026-03-12T20:09:50.143,319244,-0.031124621582031248,1.0516530792236327,10.82119295349121,-8.630598261062513,-1.1645948776417119,-10.97620600759152,1190.0,9775.0,-2781.0,1.381858783088798,2.039079144146928,-12.833135803210894,0.5214101764686768,0.6918573440462092,1.0309984866949442,0.06907650678637103,0.2989183647859144,-0.07065887673207599,0.06583227638834666,0.1265224939941113,-0.07139257825223452,10.872219638960434,14.011445531920423,10232.335315068598,0,0
2026-03-12T20:09:50.153,319254,-0.4908113403320312,1.0582371337890624,9.779116680908203,-8.452345522128732,-1.120207775235253,-11.171280258691516,1190.0,9775.0,-2781.0,1.370517862123082,2.0403079131629016,-12.944848605797809,0.0,0.8348038685936319,0.0,0.06804035918457546,0.30265740741977293,-0.06959899358109485,0.06644616730021222,0.12941951900024073,-0.07201647961985742,9.848445799309944,14.053274099062394,10232.335315068598,0,0
2026-03-12T20:09:50.201,319294,-0.6105214233398437,1.0408791717529295,9.282319836425781,-8.702987148651117,-1.3574204215091157,-11.06294369165473,1178.0,9785.0,-2810.0,1.1030349854159416,2.0123163571468194,-13.387366353463998,0.0,0.904228236527051,-0.49031052815790943,0.06701975379680683,0.33374413882764215,-0.08787324348680006,0.0690578304946324,0.14262651526879308,-0.0754558779499701,9.360428804507276,14.141191556408522,10248.414950615534,0,0
2026-03-12T20:09:50.203,319304,-0.0987608184814453,1.0492588775634766,10.634445223999023,-8.840894518222441,-1.3463877633981425,-11.109615513395523,1194.0,9796.0,-2800.0,1.0839303166625176,1.9768123832832214,-13.498462508597953,0.4592446239835789,0.7617448127376947,0.842808311541388,0.07053801703609298,0.3362411631506938,-0.0782534829658154,0.06969344745432833,0.14584293797339973,-0.07616217436684862,10.686539342258959,14.261757701883816,10258.03353474729,0,0
2026-03-12T20:09:50.214,319314,-0.412401235961914,1.0366893188476562,9.746196408081055,-9.03606198115489,-1.3947743033019009,-11.0940170040312,1194.0,9796.0,-2800.0,1.0697407826742817,1.969562616823984,-13.609402678638265,0.12664023299570618,0.8485803068387345,0.0,0.07072735307555929,0.33955606172579494,-0.07707968072132816,0.07033032026409883,0.14908926009206702,-0.07685603820288785,9.80984933360996,14.376126904356317,10258.03353474729,0,0
2026-03-12T20:09:50.223,319324,-0.7984662536621093,1.2054805358886718,9.549871871948241,-9.02049409583323,-1.4490460175743343,-11.367471253464801,1185.0,9789.0,-2797.0,1.0727587537740637,1.9968751212718887,-13.723077391172913,-0.20771835622888762,1.1073639065782634,-0.21387236710528335,0.06762041697057135,0.3453702552797039,-0.07803012832649528,0.07093551790937073,0.1523904196822192,-0.07755870314666664,9.6587154659029,14.583842113529576,10249.485596848263,0,0
2026-03-12T20:09:50.235,319334,-0.4147954376220703,1.0319009155273438,9.673173257446289,-9.006171641337303,-1.4989759947049728,-11.619049162943714,1185.0,9789.0,-2797.0,1.0592929171305354,1.988780488487591,-13.83926788280235,0.12803811570683024,0.8468527459243145,-0.10749527957415239,0.06786728615572506,0.34853120099786283,-0.07791850490540324,0.07154257658015706,0.1557198559605056,-0.07825955030752495,9.736896611503703,14.777021354685559,10249.485596848263,0,0
2026-03-12T20:09:50.244,319344,-0.062249243164062495,0.9822212310791015,10.167575900268554,-8.74909254417666,-1.6229603541529651,-11.430988644542364,1183.0,9788.0,-2784.0,1.03999253936371,1.9481999295505859,-13.953577769247774,0.46792135774897875,0.70550070285696,0.3733083282059493,0.07145830223721662,0.3502524149060359,-0.07307264029899359,0.07218490244292669,0.1590631577294564,-0.07891128643380436,10.215098296285698,14.48613551121818,10244.759099168707,0,0
2026-03-12T20:09:50.259,319354,-0.5644330413818359,1.0779892974853515,9.469067565917967,-8.610140750398624,-1.6004405989914596,-11.492119309076536,1183.0,9788.0,-2784.0,1.037004393626411,1.954053800957059,-14.06849896233854,0.0,0.9377414296148255,-0.30589441887671853,0.07038642770365837,0.3542353817641514,-0.07498961072044437,0.07281587795324332,0.1624429060355508,-0.0795815213584678,9.546930718907314,14.44869336883529,10244.759099168707,0,0
2026-03-12T20:09:50.267,319364,-0.4477157104492187,0.9050082275390624,8.799289651489257,-8.39937827085454,-1.4870394974136063,-11.377627813130902,1191.0,9786.0,-2786.0,1.0267989257743153,1.9535580060660385,-14.182275240469849,0.0,0.7604191548662307,-0.9824160097024226,0.06933063128810349,0.35641197971312155,-0.08354156425520656,0.07343567508185822,0.16584101880684934,-0.08033652006401884,8.857030406411756,14.220100437686838,10244.319059849708,0,0
2026-03-12T20:09:50.274,319374,-0.3190273712158203,1.025316860961914,9.81263550415039,-8.21035483845447,-1.6071007278644203,-11.24302734417799,1191.0,9786.0,-2786.0,1.0200023151962854,1.9362056312655542,-14.294705513911628,0.22283575446773168,0.8208702414963402,0.0,0.0704856040002891,0.3591513718961637,-0.08228844079137847,0.07406639059073926,0.16926309999328518,-0.08107824506746068,9.871214143471432,14.014220034834942,10244.319059849708,0,0
2026-03-12T20:09:50.285,319384,-0.010175357055664061,0.8589198455810546,9.743203656005859,-8.143770353817136,-1.6297521818303886,-11.250902229814482,1181.0,9783.0,-2803.0,1.00005510979412,1.892003576468364,-14.407214536209773,0.47351032655630676,0.5894597392303422,0.0,0.07409239665686437,0.3595702797491401,-0.0810541141795078,0.0747325072427506,0.1726859439879858,-0.0818068974230465,9.780995057836913,13.98427290690282,10244.933333116423,0,0
2026-03-12T20:09:50.293,319394,-0.2932897033691406,1.0193313568115234,9.95389340209961,-8.14592726209713,-1.8310793243571282,-11.04351297825859,1181.0,9783.0,-2803.0,0.992522034111258,1.870771585687696,-14.517649665992359,0.24357344536424153,0.8116138580202601,0.16766722212736873,0.07538020914384919,0.36217112205440255,-0.0781867803288606,0.07541082302485491,0.1761313475533213,-0.08250617646110878,10.010247206010634,13.84442708646448,10244.933333116423,0,0
