recv_time,timestamp,ax,ay,az,gx,gy,gz,mx,my,mz,roll,pitch,yaw,ax_w,ay_w,az_w,vx,vy,vz,x,y,z,a_norm,g_norm,m_norm,stationary,bias_ready
2026-03-12T20:03:44.294,54401,-0.3142389678955078,0.9283516937255859,9.343970529174804,57.37804878048781,-45.60975609756098,2.073170731707317,1392.0,4286.0,-1596.0,5.673888607278465,1.9167091176380318,0.0,0.0,0.0,-0.41141885615502893,0.0,0.0,-0.004052475733127035,0.0,0.0,-4.048423257393908e-05,9.39523114384497,73.32658706102342,4780.656440280979,0,0
2026-03-12T20:03:44.311,54411,-0.33039982910156246,0.9187748870849609,9.369109646606445,67.24146341463415,-40.7219512195122,1.9414634146341465,1388.0,4277.0,-1587.0,6.335120109405875,1.516998067054819,0.019414634146341467,0.0,-0.12068389523593881,-0.38792425092750094,0.0,-0.0011887363680739974,-0.007812742468766013,0.0,-1.1875476317059234e-05,-0.0001184930456043376,9.419847499314534,78.63498581074634,4768.421332055295,0,0
2026-03-12T20:03:44.311,54421,-0.3094505645751953,0.9522937103271484,9.6779616607666,76.12068292682928,-36.27882926829269,1.5959024390243906,1388.0,4277.0,-1587.0,7.074177674959698,1.1642356136961811,0.035373658536585376,-0.11170808804531432,-0.24690656874397765,0.0,-0.001100324667246346,-0.0036029350246810673,-0.007695551331734523,-1.0992243425790996e-05,-4.7856921737306046e-05,-0.00019525311036276116,9.729623058983979,84.33895142174636,4768.421332055295,0,0
2026-03-12T20:03:44.312,54431,-0.3136404174804687,0.9624690673828125,9.651625442504882,84.24566243902439,-32.2057912195122,1.39993756097561,2765.0,8522.0,-3201.0,7.883306207249853,0.8573258811504204,0.04937303414634148,-0.1682622330291877,-0.3705497070439485,-0.11062135755574865,-0.0027412027925751495,-0.007198805613693744,-0.00866973843368263,-3.836586708019095e-05,-0.00011972513289636925,-0.00028166854420488786,9.70456545650312,90.2025745366477,9513.995480343681,0,0
2026-03-12T20:03:44.312,54441,-0.3112462158203125,0.958877764892578,9.604938510131836,92.03283871219512,-28.409815726829276,1.244040117073171,2765.0,8522.0,-3201.0,8.75709579670496,0.5923318408979019,0.06181343531707319,-0.21102716660307475,-0.5148396005946062,-0.16499182938969348,-0.004778702341726808,-0.01216199359534521,-0.01016486187666587,-8.606673760696158e-05,-0.00024110372378097154,-0.000382933845808575,9.6576997550287,96.32605393594302,9513.995480343681,0,0
2026-03-12T20:03:44.312,54451,-0.3363853332519531,0.9570821136474609,9.589376199340819,99.2360652737561,-25.102884127219518,1.0811022735609759,2759.0,8524.0,-3180.0,9.68870884552815,0.3661703789894008,0.07262445805268294,-0.27408907597376614,-0.6707623107659715,-0.19102468190119026,-0.0074067992049425034,-0.01858657245245985,-0.011893982065242607,-0.00015997459492673023,-0.00042654247885726447,-0.0005013717927945401,9.642888423972098,102.36757408792927,9507.0004207426,0,0
2026-03-12T20:03:44.312,54461,-0.27952304382324217,0.948103857421875,9.598953005981445,26.599619076245887,-24.723921689724882,1.1507116526517076,2759.0,8524.0,-3180.0,9.889997944018674,0.1420459668026865,0.08413157457920002,-0.2546250202078636,-0.7150488644608606,-0.18683689952637117,-0.009803753665915823,-0.025351005180612427,-0.013555915794598725,-0.0002577541194543026,-0.0006793724781327253,-0.0006362940197897868,9.649711543228982,36.33367826175298,9507.0004207426,0,0
2026-03-12T20:03:44.312,54471,-0.34177228698730466,0.9552864624023437,9.54448491821289,104.24238125746325,-20.277715271620064,0.9025571594639614,2759.0,8525.0,-3157.0,10.8541690349469,-0.029211150889875623,0.09315714617383963,-0.3452456639995756,-0.8596875320781604,-0.25320477568045696,-0.013057367151322904,-0.03343866229387312,-0.015846644098132245,-0.0003879394631765641,-0.001012745341970385,-0.0007939657003103381,9.598258846030097,106.20016194097501,9500.229207761253,0,0
2026-03-12T20:03:44.312,54481,-0.3711012573242187,0.9403227020263671,9.590573300170897,110.07372246418325,-17.553059025500218,0.8937672208531859,2759.0,8525.0,-3157.0,11.859579005979253,-0.16859029475106777,0.1020948183823715,-0.39741275558067773,-1.0514543579877478,-0.228679129932841,-0.016776022286522738,-0.04329390778564434,-0.017861433866498744,-0.0005551439863557497,-0.0014442387354070014,-0.0009716074589363503,9.643703601474108,111.46808098339096,9500.229207761253,0,0
2026-03-12T20:03:44.312,54491,-0.35194764404296874,0.9540893615722655,9.509170443725585,115.90197100851199,-15.104911864435813,0.7929975505020043,2761.0,8517.0,-3215.0,12.909262497570968,-0.28320907813423857,0.11002479388739154,-0.3965174908431641,-1.1952106354084,-0.3265275536231016,-0.020430079237030063,-0.05441732392763242,-0.020809808761688812,-0.0007586853339473243,-0.0019864235627086425,-0.0011785258410066852,9.563392503805176,116.8847898197427,9513.077052142487,0,0
2026-03-12T20:03:44.312,54501,-0.3711012573242187,0.9235632904052734,9.528922607421874,121.14688649856275,-12.735543305524851,0.8271187220716,2761.0,8517.0,-3215.0,13.991959438394016,-0.37110830014742713,0.11829598110810755,-0.4295200517712422,-1.4086864372351018,-0.3397515427710527,-0.02435440055842135,-0.06747662547548368,-0.02384421432655835,-0.0010012271101920063,-0.0026585286276460157,-0.0014155510162879963,9.580764653868059,121.8172660051232,9513.077052142487,0,0
2026-03-12T20:03:44.312,54511,-0.412401235961914,0.8804676605224608,9.591770401000977,125.97708679818993,-10.648407158156035,0.80972971211075,2767.0,8522.0,-3206.0,15.101625075729899,-0.4336538944092071,0.12639327822921503,-0.48057629854112405,-1.6499653239228351,-0.32013228498465374,-0.0287227610906751,-0.08271663453399135,-0.026639854118758813,-0.0012871662663776584,-0.0034822092780129434,-0.001680267607918109,9.640920988482753,126.42891534522957,9516.260242343102,0,0
2026-03-12T20:03:44.312,54521,-0.40402153015136716,0.8714894042968749,9.515754498291015,129.86477351287132,-8.606290683064529,1.4522684083126212,2767.0,8522.0,-3206.0,16.232760274038707,-0.47560464619763393,0.14091596231234124,-0.4773832445649188,-1.824468268984106,-0.4303110756835338,-0.032994144633279425,-0.09944689746547491,-0.030478820402460235,-0.0016154906049977423,-0.004472201574415025,-0.0019830707561307686,9.564115790305618,130.15773785065778,9516.260242343102,0,0
2026-03-12T20:03:44.312,54531,-0.354940396118164,0.8900444671630859,9.595960253906249,130.97315260745137,-6.888519135736441,4.023891813696391,2755.0,8522.0,-3169.0,17.358841471801732,-0.5046833615243043,0.18115488044930517,-0.4315714912453118,-2.014872263023296,-0.3856813213281356,-0.036750211652546556,-0.11780168579427225,-0.03382059911150547,-0.0019810097288016845,-0.00564456821392539,-0.0023189554704985777,9.643682648909213,131.215891206616,9500.372097975953,0,0
2026-03-12T20:03:44.313,54541,-0.38367081604003905,0.8774749084472656,9.438541494750975,130.35383698422112,-5.522803458536063,6.258078029576288,2755.0,8522.0,-3169.0,18.46211457776856,-0.5167461379004853,0.24373566074506806,-0.45772595898334184,-2.158626574786319,-0.5798385618448663,-0.04070755917374427,-0.1372971322690034,-0.03902469995900482,-0.002385697235218588,-0.007010521997078809,-0.0027064932676185375,9.487003270694668,130.6207782673751,9500.372097975953,0,0
2026-03-12T20:03:44.313,54551,-0.30047230834960936,0.814028564453125,9.299079248046874,129.7840666108493,-4.266345035511715,8.162309835990673,2759.0,8533.0,-3176.0,19.53859852330813,-0.5233636260838317,0.3253587591049748,-0.36968570846035576,-2.344984149505887,-0.7739215756083482,-0.04373835001447261,-0.15833576915760134,-0.04606245697936198,-0.002820257654627951,-0.008585285808966168,-0.0031639507195747453,9.339475412103539,130.11044903415757,9513.734597937868,0,0
2026-03-12T20:03:44.313,54561,-0.5039794494628906,0.9953893402099608,9.567229833984374,127.00134128198135,-3.0616227985244366,9.914203097891907,2759.0,8533.0,-3176.0,20.58557931872797,-0.500681226474798,0.42450079008389385,-0.5672479517979137,-2.4363335474866603,-0.5050807492263765,-0.04866966708946498,-0.1799586180629809,-0.050346565504551355,-0.003303647371197078,-0.010374487117606381,-0.0036637489582456387,9.632065298800939,127.42450959155777,9513.734597937868,0,0
2026-03-12T20:03:44.313,54571,-0.35015199279785153,0.7835024932861328,8.768763580322265,120.95830715015455,-1.7874246819595556,11.335700996402018,2765.0,8522.0,-3212.0,21.54482355488821,-0.47661252626359346,0.5378578000479141,-0.3969728504533512,-2.4952210704138196,-1.3660349946583938,-0.05184980466008851,-0.20183716633561233,-0.06304681171936827,-0.003818323272380165,-0.012380465922181541,-0.004289922858363882,8.810658165122062,121.50146119575945,9517.702086113013,0,0
2026-03-12T20:03:44.314,54581,-0.3597287994384765,0.9367313995361327,9.446322650146485,111.83774013911781,-0.761503878134499,11.902015648397173,2765.0,8522.0,-3212.0,22.408200068018623,-0.44441095117296786,0.6568779565318857,-0.3988411873028829,-2.7397159566452514,-0.7195842294166752,-0.055000643285120575,-0.22579581101353385,-0.069189014203332,-0.004363961375526139,-0.014623785608284564,-0.004976831187396805,9.499467465847381,112.47185418617383,9517.702086113013,0,0
2026-03-12T20:03:44.315,54591,-0.7852981445312499,1.331774673461914,10.440514889526366,100.74437946457377,-0.19814454349349542,11.632781225793693,2771.0,8521.0,-3151.0,23.173448662520315,-0.3756909370864829,0.7732057687898226,-0.8126542631574108,-2.8954148634058527,0.3102088965370644,-0.06218027812794426,-0.2509287102528785,-0.06509562135939193,-0.004980778392648776,-0.017115939638102536,-0.005622159613589733,10.554367253184843,101.41395788553628,9498.141028643447,0,0
2026-03-12T20:03:44.315,54601,-0.36092590026855464,0.8601169464111328,9.131485131835937,88.6701949610664,0.1250240931567158,10.726548971632637,2771.0,8521.0,-3151.0,23.779962656882063,-0.3350216168640706,0.8804712585061489,-0.3672742201743248,-2.9009383704950347,-1.1058594843218952,-0.06486522502474219,-0.27573902254846144,-0.07501190295957172,-0.005623801212253302,-0.019853456533723564,-0.006365906364542265,9.179002635359087,89.31672832285243,9498.141028643447,0,0
2026-03-12T20:03:44.315,54611,-0.5578489868164063,1.0588356842041016,9.636063131713867,79.92292082759572,0.17843679985051997,9.063547005121539,2757.0,8522.0,-3145.0,24.304563772845743,-0.2788365195797165,0.9711067285573644,-0.5517522481298689,-3.0108699237870695,-0.5916473990600846,-0.06932700629345027,-0.3012600059595371,-0.07971445129591997,-0.006310754203912617,-0.022843190536725615,-0.007155887826623963,9.710099957086502,80.43539642234457,9492.974138803918,0,0
2026-03-12T20:03:44.315,54621,-0.26874913635253905,0.9301473449707031,9.624092123413085,73.00713594187587,-0.09925277828386297,7.782365683736207,2757.0,8522.0,-3145.0,24.74192108814066,-0.2517496234147846,1.0489303853947265,-0.25053725930510934,-3.1883462855634477,-0.6780012266808217,-0.07075489320320386,-0.32814631678294404,-0.08519704660928727,-0.007011284832808711,-0.0260985290508505,-0.00799985043442412,9.672670230168507,73.4208210604113,9492.974138803918,0,0
2026-03-12T20:03:44.315,54631,-0.5135562561035156,0.910395181274414,8.88009395751953,66.48363823725751,-0.06692231211871492,6.193922770500725,2756.0,8516.0,-3218.0,25.11345956457445,-0.19924296744918638,1.1108696130997338,-0.4856705393633372,-2.95445600226773,-1.3814531496881717,-0.07447742461788466,-0.35232551365353704,-0.09752640443457646,-0.00774830301990857,-0.029592162403198483,-0.008966139364291114,8.941399672794278,66.7715756227552,9511.746211921341,0,0
2026-03-12T20:03:44.315,54641,-0.3842693664550781,0.948702407836914,9.613318215942382,60.48202034900862,-0.037178283246778715,4.732555290324082,2756.0,8516.0,-3218.0,25.417046425264022,-0.16245069587279154,1.1581951660029746,-0.34387680013579885,-3.2768183578147188,-0.7177668715943,-0.07674744972995401,-0.379317291773209,-0.10313351205326166,-0.008507261739690903,-0.03335194998560965,-0.009987477010338907,9.667656713268265,60.66690405236296,9511.746211921341,0,0
2026-03-12T20:03:44.315,54651,-0.508169302368164,0.9097966308593749,9.034519964599609,54.73126359913671,-0.08298450839191446,3.739316720756692,2756.0,8531.0,-3178.0,25.661150107980497,-0.11278353851130382,1.1955883332105415,-0.4603369440555174,-3.1025972368652335,-1.2702281955274017,-0.08013055688295154,-0.4041881151797334,-0.11409825709840764,-0.009299258741211897,-0.03735643730626958,-0.01111733112174166,9.094422298317873,54.858915329460814,9511.739115429944,0,0
2026-03-12T20:03:44.315,54661,-0.3447650390625,0.9361328491210937,9.692925421142577,49.606421047791144,-0.12512623552543933,2.6352933343156693,2756.0,8531.0,-3178.0,25.847602985712616,-0.08190948823511315,1.2219412665536982,-0.28558475005397194,-3.3902935262586125,-0.6758032692996707,-0.08174160831773888,-0.43151968468568475,-0.11904344544453328,-0.010106558149564895,-0.0416299625189733,-0.012295457810610805,9.744126993384032,49.676528025853834,9511.739115429944,0,0
2026-03-12T20:03:44.315,54671,-0.5632359405517577,0.8230068206787109,8.585008602905273,44.76961468104103,-0.11023808790291638,1.5854454773265136,2755.0,8511.0,-3213.0,25.98300902939153,-0.02571861516668906,1.2377957213269632,-0.5014633885609587,-3.032851390256983,-1.7290702524444423,-0.08545489857029824,-0.4549204756094308,-0.134289135749443,-0.01095014602813261,-0.04613298810779254,-0.01362471081893713,8.642739592488624,44.797814550338096,9505.28879098368,0,0
2026-03-12T20:03:44.315,54681,-0.4052186309814453,0.9223661895751952,9.4481183013916,40.49536257972848,-0.35019952867556103,0.6878781318233197,2755.0,8511.0,-3213.0,26.075780115164427,0.007881263060257895,1.2446745026451964,-0.33168491740401884,-3.332519760412022,-0.9147324269628463,-0.08744017152817336,-0.48092198811534775,-0.1412849131187854,-0.01181272319567093,-0.050891265780957075,-0.01502252239017486,9.501678849743177,40.5027185075002,9505.28879098368,0,0
2026-03-12T20:03:44.315,54691,-0.38367081604003905,1.0917559570312498,10.468048208618164,36.56305064652093,-0.48315917613761367,-0.23544480164937476,2756.0,8529.0,-3248.0,26.134100775534744,0.03431986702723998,1.2423200546287028,-0.29894663097789,-3.6380942531695073,0.0,-0.08907319327038299,-0.5095433866873371,-0.13916563942200363,-0.012690751673246384,-0.05593071294818261,-0.016397764605610498,10.531816921250957,36.56700082894636,9533.566016973922,0,0
2026-03-12T20:03:44.315,54701,-0.4896142395019531,0.9181763366699218,9.302670550537108,32.80873830211633,-0.5030430274124582,-0.6946579980052294,2756.0,8529.0,-3248.0,26.14980813772117,0.07382377916151675,1.2353734746486504,-0.407599495684521,-3.285225034919866,-1.0508742844150252,-0.09175195040381978,-0.5342597024809878,-0.14742926653216157,-0.013594662906107297,-0.0612120366630195,-0.01785418521366118,9.360686366959106,32.819946846367316,9533.566016973922,0,0
2026-03-12T20:03:44.316,54711,-0.11851298217773437,0.6829460235595702,9.002796792602538,29.213307530629955,-0.3310922681462909,-1.5415243825550546,2773.0,8528.0,-3187.0,26.110383745835204,0.08073574306067284,1.2199582308230998,0.0,-3.350410759947418,-1.4218836265960348,-0.09037567114776249,-0.559247352929255,-0.1592233812561501,-0.014483921197967337,-0.06673770568211974,-0.01942697260719646,9.029441327509417,29.25582431570163,9516.999632237043,0,0
2026-03-12T20:03:44.316,54721,-0.2597708801269531,0.9630676177978515,10.114304913330077,26.12014536720395,-0.44606830132873393,-2.0084463343896743,2773.0,8528.0,-3187.0,26.057599600918355,0.09710011199608518,1.199873767479203,-0.1686820550489491,-3.582099186999611,-0.29695727072494194,-0.0906815543227782,-0.5861423196272623,-0.15976005965394854,-0.015375346004453925,-0.07252652974951398,-0.02100354863053221,10.16337266985845,26.20104630757023,9516.999632237043,0,0
2026-03-12T20:03:44.316,54731,-0.8415618835449218,1.0402806213378906,8.86213744506836,23.274436176852028,-0.5518462518565815,-2.4380145300775244,2757.0,8521.0,-3212.0,25.99641406809501,0.17102572301137817,1.1754936221784278,-0.7557427166963949,-2.9655082636806567,-1.3827255016173332,-0.09676539676739603,-0.6065604412301079,-0.17098350495007003,-0.016326656972155757,-0.07851354202765326,-0.022690670296352876,8.96258279014758,23.408285466580327,9514.485482673248,0,0
2026-03-12T20:03:44.316,54741,-0.3872621185302734,0.8128314636230468,8.85435628967285,20.5197983558746,-0.732088795610494,-3.057607514012785,2757.0,8521.0,-3212.0,25.88726379698954,0.19865732720265872,1.1449175470383,-0.2957059563488233,-3.1410959448619518,-1.4846089947101948,-0.09822661948592099,-0.6284018296685464,-0.1830421509737144,-0.017291614243847953,-0.08471276276401439,-0.02449657071428393,8.9000164180283,20.75926401104239,9514.485482673248,0,0
2026-03-12T20:03:44.316,54751,-0.25797522888183594,1.0893617553710937,10.57878003540039,18.248946194721704,-0.9662046187909228,-3.4032428153307865,2762.0,8530.0,-3164.0,25.766897568544103,0.20700433060610576,1.1108851188849922,-0.15166402765952364,-3.6212850853959866,0.1947068901009814,-0.09824711086607847,-0.6546454603146686,-0.17837865584161403,-0.018255811267156228,-0.09116795814979392,-0.026254076915427367,10.637849749369828,18.58869684091172,9507.91459784952,0,0
2026-03-12T20:03:44.316,54761,-0.49320554199218747,1.006761798095703,9.463082061767578,16.374396352802506,-1.132810688312039,-3.8285443657140794,2762.0,8530.0,-3164.0,25.63277332983424,0.23724280860655808,1.0725996752278515,-0.3963500243335658,-3.1940412634584185,-0.8373830177968404,-0.10067745194277292,-0.676287084855014,-0.1839511987292887,-0.01924332320079737,-0.09783289816934572,-0.028065495313817534,9.529257218299021,16.85413503964137,9507.91459784952,0,0
2026-03-12T20:03:44.350,54771,-0.29448680419921874,1.0085574493408203,9.99160207824707,14.444932449456356,-1.2568199795885393,-4.141773011578905,2763.0,8519.0,-3211.0,25.477023445966896,0.24649974977134548,1.0311819451120625,-0.19280910934829845,-3.3914147304098625,-0.3516432062313779,-0.10106645989071206,-0.6995482136767259,-0.18465561632972843,-0.020233733811904787,-0.10472355192580687,-0.029882139425637704,10.046692127088372,15.079454685428566,9514.097487413086,0,0
2026-03-12T20:03:44.354,54781,-0.35793314819335936,0.9109937316894531,9.324218365478515,12.460069560816923,-1.336762186099505,-4.249455560896495,2763.0,8519.0,-3211.0,25.301302707710178,0.2624544388012602,0.9886873895030975,-0.26293527427445107,-3.1663733710739033,-0.9859913759869254,-0.10214037544395471,-0.720243768176653,-0.19159779713825373,-0.021233882428777988,-0.11181406361796582,-0.03176631927962322,9.37545059423172,13.232465347266778,9514.097487413086,0,0
2026-03-12T20:03:44.354,54791,-0.4417302062988281,1.1246762298583983,10.241197601318358,10.853507898390594,-1.2981138941383739,-4.753401555049165,2762.0,8532.0,-3218.0,25.122695842562237,0.2825569141181424,0.9411533739526059,-0.3388979743936863,-3.3357173402382907,0.0,-0.1039464148600732,-0.7422969274553504,-0.1887238301811799,-0.022251073230801343,-0.11911779585962681,-0.033619904023853585,10.312233051401341,11.919671124914728,9527.811501074106,0,0
2026-03-12T20:03:44.354,54801,-0.32620997619628905,0.9277531433105468,9.576806640625,9.51205653481203,-1.2137769777292553,-4.982885528206207,2762.0,8532.0,-3218.0,24.922548096153815,0.2954898546887067,0.8913245186705439,-0.22967562053481583,-3.1981974192023594,-0.7291422664560052,-0.10464952349944003,-0.7626647181226633,-0.19307502405305388,-0.023274270897329946,-0.12661769859781258,-0.035515103610119746,9.62716802987315,10.806554597110619,9527.811501074106,0,0
2026-03-12T20:03:44.367,54811,-0.7565677246093749,1.1378443389892579,9.55645592651367,8.277921280319752,-1.136187014632866,-5.2623034664375155,2757.0,8517.0,-3171.0,24.732097182751914,0.3472902626927497,0.8387014840061687,-0.657585423081636,-2.9746611657526447,-0.6463057544269972,-0.10955699706430254,-0.7805251598334869,-0.196545010373364,-0.024345471027105,-0.1342885272459513,-0.037443073160139534,9.653648757702383,9.874550087384804,9497.135304922216,0,0
2026-03-12T20:03:44.378,54821,-0.40761283264160153,0.8726865051269531,9.135076434326171,6.683980260821002,-1.0696822973646758,-5.519367969610319,2757.0,8517.0,-3171.0,24.508807702481395,0.36969426447620196,0.7835078043100655,-0.3106426343286403,-3.0000053164664484,-1.1301979213300228,-0.1109734720564751,-0.7983673348031791,-0.20472928474286425,-0.02542975054192208,-0.14212992839338912,-0.03945087564156061,9.18571452955872,8.734027428872691,9497.135304922216,0,0
2026-03-12T20:03:44.387,54831,-0.70868369140625,1.1103110198974608,9.756970315551758,5.432188669223615,-1.0670345428437944,-5.721720971065884,2755.0,8528.0,-3156.0,24.29206479014323,0.415554881077341,0.7262905945994067,-0.602749970996763,-3.0097795565706704,-0.45189653626608006,-0.1152459571899461,-0.8160381534133525,-0.20610952635394217,-0.026555627903707718,-0.15014001961759513,-0.04147045893419493,9.845480835080078,7.961490270319899,9501.428576798333,0,0
2026-03-12T20:03:44.401,54841,-0.34177228698730466,0.8313865264892578,9.341576327514648,4.246394063490604,-1.0206961696601933,-6.122519878746467,2755.0,8528.0,-3156.0,24.04579840455973,0.430573531692784,0.665065395811942,-0.23972060251751404,-3.0501308021893383,-0.93465494490518,-0.11587851576689441,-0.8338413695137172,-0.21222423466594906,-0.027686698648315283,-0.15831995487941958,-0.043549108579573566,9.38472483002898,7.520567324268356,9501.428576798333,0,0
2026-03-12T20:03:44.405,54851,-0.8649053497314453,1.0498574279785156,9.160215551757812,3.0091215628016004,-1.0512355980385972,-6.422962190885774,2774.0,8524.0,-3175.0,23.81282387633459,0.4941450645131613,0.6008357739030843,-0.7601873844485876,-2.7460779238436217,-0.9952379670483378,-0.12162818376720959,-0.8483826165208712,-0.21884396512138593,-0.02887407750550139,-0.16663697726358365,-0.04569181068255664,9.260659309020141,7.170380196882818,9509.693843652381,0,0
2026-03-12T20:03:44.414,54861,-0.43933600463867184,0.8678981018066406,9.230844500732422,1.792782081679912,-1.0549416282442898,-6.494491069273448,2774.0,8524.0,-3175.0,23.553859119198453,0.5170359927121085,0.5358908632103498,-0.3327553709181731,-2.896396399923068,-0.9944473698722032,-0.12308140141424545,-0.8641863818123005,-0.22535661223780634,-0.0300747866281242,-0.17510356224062495,-0.04789743142812977,9.281958491438832,6.8194855876574625,9509.693843652381,0,0
2026-03-12T20:03:44.424,54871,0.022146365356445312,0.7392097625732421,9.79408044128418,1.0591156127064951,-0.9607902004237711,-6.613956173975475,2759.0,8525.0,-3208.0,23.275726890164403,0.49787882683171514,0.4697513014705951,0.12902265889976983,-3.190194358740525,-0.5181115610485847,-0.11996430720286903,-0.8826470005187101,-0.2270796619305678,-0.03124315527045274,-0.18374610221356624,-0.050118059819388015,9.821961780872874,6.7667761867507705,9517.298461223121,0,0
2026-03-12T20:03:44.434,54881,-0.4722562774658203,0.93852705078125,9.450512503051756,0.5890205100314392,-1.1229513746337718,-6.718986021520851,2759.0,8525.0,-3208.0,23.017464254649806,0.5220515109596617,0.40256144125538657,-0.369737760035597,-2.834121677895743,-0.7376316468000841,-0.12180675953117663,-0.8973233940382025,-0.23093913872259011,-0.03242876164289874,-0.19252661681779432,-0.0523750237554073,9.508735225412032,6.837597392975267,9517.298461223121,0,0
2026-03-12T20:03:44.444,54891,-0.4848258361816406,1.1192892761230469,10.356119281005858,0.05897203996063155,-1.062383557345997,-7.079028115408939,2754.0,8526.0,-3251.0,22.765311905853714,0.5437293228654508,0.33177116010129715,-0.3728382988745701,-2.9774918662083127,0.17997129686763635,-0.1236521153821235,-0.9131918380097813,-0.22570233436760503,-0.03363161751392326,-0.20145687666269424,-0.05457741505198427,10.42770689737176,7.158545633239093,9531.326927558408,0,0
2026-03-12T20:03:44.454,54901,-0.30406361083984373,0.9026140258789062,9.546280569458007,-0.4286725525045115,-1.006661165441244,-7.4102668417859805,2754.0,8526.0,-3251.0,22.50062986421504,0.5529014637681726,0.2576684916834373,-0.20292761844769525,-2.820338658744222,-0.6391449031033645,-0.12379617069310146,-0.9272742962282652,-0.2286123766476591,-0.034834709641633425,-0.2105188900053519,-0.0568066752796424,9.593677056789112,7.490606218841772,9531.326927558408,0,0
2026-03-12T20:03:44.465,54911,-0.3136404174804687,1.0845733520507812,10.387842453002929,-0.9651104556212236,-1.0578355892791154,-7.4369576895650535,2757.0,8520.0,-3192.0,22.243022162147355,0.5599892142030357,0.18329891478778676,-0.20627298125800897,-2.928979571063946,0.22133437500572128,-0.12397101699809632,-0.942215630559821,-0.22300304740413784,-0.03603834539180278,-0.21972110526463914,-0.058977669047930094,10.449016245363287,7.573558872939174,9506.856104938162,0,0
2026-03-12T20:03:44.474,54921,-0.4381389038085937,0.9145850341796874,9.183559017944335,-1.5561943020983546,-0.953696547014835,-7.534684001229118,2757.0,8520.0,-3192.0,21.979357798811332,0.5829659303330912,0.10795207477549558,-0.3431078574969956,-2.589693051067791,-0.9442601067929886,-0.12549106413947028,-0.9535908726544414,-0.2289589637449867,-0.03725596277716429,-0.22902775697719238,-0.06120599142669458,9.239382431734427,7.752595746461274,9506.856104938162,0,0
2026-03-12T20:03:44.494,54931,-0.4471171600341797,1.1725602630615233,10.378864196777343,-2.129259733540242,-1.057888628131697,-7.478250744545422,2758.0,8529.0,-3160.0,21.725379794096,0.6005689252571147,0.033169567330041366,-0.33988872596294495,-2.7527480772022237,0.27315590179579274,-0.12695660212811324,-0.9664015781250668,-0.22283399365612333,-0.03848700326964697,-0.2384530809856846,-0.06337089703189255,10.454455190991759,7.84710835663051,9504.525501044227,0,0
2026-03-12T20:03:44.504,54941,-0.5961562133789062,0.9894038360595703,9.093177905273437,-2.6174555402228763,-1.0366721720275027,-7.645844343518373,2758.0,8529.0,-3160.0,21.466863683257852,0.6372848276007226,-0.04328887610514237,-0.4997877606998009,-2.4066221084044344,-0.9761013862327683,-0.1299751625390846,-0.9756107822209744,-0.22910608240567426,-0.03974696814014278,-0.24796097961908645,-0.06559629589809333,9.166253683949222,8.14768055477211,9504.525501044227,0,0
2026-03-12T20:03:44.508,54951,-0.09636661682128905,0.7559691741943358,9.126696728515624,-3.081229828712363,-1.163494495826278,-8.141493869207634,2759.0,8534.0,-3183.0,21.18553607868908,0.6253084173233312,-0.12470381479721872,0.0,-2.593405338356202,-1.023052787013368,-0.12802553510099832,-0.9865216630704684,-0.2357465611216708,-0.04098619626766161,-0.25756837005354133,-0.06788580774780073,9.158458881900788,8.782460880727585,9516.970421305301,0,0
2026-03-12T20:03:44.516,54961,-0.23822306518554687,0.958279214477539,9.82520506286621,-3.5957070521714716,-1.1972442044528586,-8.05602801820761,2759.0,8534.0,-3183.0,20.915894255896912,0.6248715027017854,-0.20526409497929482,-0.14374477618412831,-2.6119380422260536,-0.2847373291155417,-0.127521038119897,-0.9974514278403379,-0.23501502539663383,-0.042219145242211716,-0.2672753414476128,-0.07016572204376531,9.874700188312447,8.902925941524934,9516.970421305301,0,0
2026-03-12T20:03:44.525,54971,-0.022744915771484374,0.7906850982666015,9.695918173217773,-3.8787821953148267,-1.2282939363893128,-8.240814069433927,2770.0,8514.0,-3193.0,20.633880648255243,0.6054091479327706,-0.2876722356736341,0.0,-2.677178650036569,-0.4543604078828398,-0.12560822254809856,-1.008859866125593,-0.23596525003333027,-0.04343175224022501,-0.27708657616875987,-0.07245284916955452,9.728130831642273,9.190466464758044,9505.595457413492,0,0
2026-03-12T20:03:44.534,54981,-0.4686649749755859,0.9241618408203125,9.341576327514648,-4.139211327006714,-1.2373474946488994,-8.21081723656214,2770.0,8514.0,-3193.0,20.368349487745338,0.6270128395928709,-0.3697804080392555,-0.3846665081268043,-2.382564172378429,-0.722917843468549,-0.1275130643149261,-1.0171952252316365,-0.23954651204099553,-0.0446621760004909,-0.28697126989265515,-0.07477346597567451,9.39887069011907,9.27801804936596,9505.595457413492,0,0
2026-03-12T20:03:44.544,54991,-0.7691372833251953,0.977432827758789,8.818443264770508,-4.403196372065689,-1.245676768247719,-8.183220150320095,2759.0,8525.0,-3238.0,20.114325139549226,0.6796550403226567,-0.4516126095424564,-0.6835202986201728,-2.1094743860654197,-1.181407596260506,-0.13233304329161089,-1.0227156195559062,-0.24759017918354662,-0.0459395209269736,-0.296901227662126,-0.07717211839974246,8.905722245127441,9.375763485206383,9527.452440185676,0,0
2026-03-12T20:03:44.554,55001,-0.3585316986083984,0.8756792572021483,9.463680612182616,-4.846062613519946,-1.2387055536171698,-8.367586928538389,2759.0,8525.0,-3238.0,19.844174866721524,0.6896648741910204,-0.5352884788278403,-0.2700881511705092,-2.386471685315998,-0.6040191177150547,-0.13300841593126622,-1.0308816313629303,-0.24982591480528674,-0.04722233548119997,-0.30690283393177953,-0.07959070717024753,9.510867987192455,9.748601197575184,9527.452440185676,0,0
2026-03-12T20:03:44.564,55011,-0.22864625854492185,0.9732429748535155,10.402806213378906,-5.292523945901765,-1.2322920361570646,-8.420131193767514,2762.0,8523.0,-3195.0,19.5745528166517,0.685986498843191,-0.6194897907655154,-0.13513899026308396,-2.566977989003957,0.32302025968974846,-0.13234440874638861,-1.0407031400841753,-0.2428967765252634,-0.04849723378909519,-0.31699255546728866,-0.08193765526056467,10.450734812096377,10.021375289877954,9512.002838519342,0,0
2026-03-12T20:03:44.574,55021,-0.3962403747558593,0.8768763580322265,9.381679205322266,-5.513024469254014,-1.1922452586303531,-8.580667039729526,2762.0,8523.0,-3195.0,19.306727405600295,0.7000730621782512,-0.7052964611628106,-0.31246025437719055,-2.270582744166859,-0.6585001387020881,-0.1334369761208081,-1.047457833012956,-0.24573955124360003,-0.04978177194675297,-0.32713966666362077,-0.08431065572222766,9.43089726873529,10.268531268006186,9512.002838519342,0,0
2026-03-12T20:03:44.584,55031,-0.7050923889160156,1.1282675323486326,9.947907897949218,-5.808567877567351,-1.1651583208667542,-8.513725871673117,2758.0,8536.0,-3186.0,19.056972559035493,0.738522876218627,-0.7904337198795418,-0.6091323936537402,-2.173444854601108,0.0,-0.13743537555648533,-1.0531543973355826,-0.242053457974946,-0.051104969576615505,-0.3373335394263396,-0.08664445911167515,10.036484167652524,10.372106002109142,9519.477716765768,0,0
2026-03-12T20:03:44.678,55041,-0.44412440795898434,0.9121908325195311,9.548674771118163,-5.963394642483914,-1.291457850319365,-8.174091216573414,2758.0,8536.0,-3186.0,18.794232654702952,0.7544884106546231,-0.8721746320452759,-0.35482851133776794,-2.2076007146296264,-0.4681745194103186,-0.13886890575981506,-1.0591019484146507,-0.24303417512151346,-0.05244116497557945,-0.3475766343515756,-0.0889857260620274,9.602423053025007,10.200279714695084,9519.477716765768,0,0
2026-03-12T20:03:44.680,55051,-0.6973112335205077,0.8750807067871094,8.658031753540039,-5.993640144255933,-1.4027753686352793,-8.354310260710955,2764.0,8523.0,-3211.0,18.5398524224501,0.7980744224521227,-0.9557177346523854,-0.6110315339906901,-1.9133520536204944,-1.3108129353860765,-0.14280453278322613,-1.0620619369165927,-0.2523001699082436,-0.0538153410931083,-0.3578390564670208,-0.09141721903334873,8.730035684067536,10.377186557343299,9517.96963642982,0,0
2026-03-12T20:03:44.680,55061,-0.1514332550048828,0.9050082275390624,10.056245523071288,-6.06536844491058,-1.3246996806078717,-8.378648366683347,2764.0,8523.0,-3211.0,18.27914765843752,0.7859438924977428,-1.039504218319219,0.0,-2.294091165592821,0.0,-0.14066246479147773,-1.0687278058439331,-0.24851566735961994,-0.05516674377528206,-0.3681578081909347,-0.09380847333123798,10.098021882672175,10.428100117895163,9517.96963642982,0,0
2026-03-12T20:03:44.680,55071,-0.4752490295410156,1.0624269866943359,9.918578927612304,-6.131358481512855,-1.2528700476226566,-8.401039424177949,2755.0,8536.0,-3205.0,18.0362753095612,0.8027287363381015,-1.1235146125609985,-0.37880671168265795,-2.053728398993212,0.0,-0.14228377392967975,-1.0729261134863572,-0.24478793234922563,-0.056532991933064276,-0.3785081822564724,-0.09616009630207552,9.986632099231999,10.475719717119286,9524.98535431945,0,0
2026-03-12T20:03:44.680,55081,-0.37768531188964843,0.9546879119873046,9.612719665527344,-6.304264437138168,-1.328250199910405,-8.680175782438834,2755.0,8536.0,-3205.0,17.788710205837756,0.8111895312590471,-1.2103163703853868,-0.2867090525331291,-2.022110992788403,-0.3574532286247809,-0.1429736014881859,-1.0767500150630276,-0.24463702766594136,-0.05790476521999819,-0.3888864067246956,-0.09850786011215619,9.667391301283297,10.809877441533029,9524.98535431945,0,0
2026-03-12T20:03:44.680,55091,-0.15502455749511718,1.054047280883789,10.611700308227539,-6.360898891923212,-1.2073560375761092,-8.576005622282752,2765.0,8536.0,-3131.0,17.54431240119958,0.7996222360629863,-1.2960764266082143,0.0,-2.19303552566667,0.6303202030660398,-0.1408289974658631,-1.0822001647648989,-0.23475881825075176,-0.05925374213946216,-0.3993086999639723,-0.10075459284636905,10.665047197054568,10.74553934189284,9503.245866544756,0,0
2026-03-12T20:03:44.681,55101,-0.41958384094238277,0.9660603698730468,9.577405191040038,-6.456905029349843,-1.1546699935944107,-8.71431541640257,2765.0,8536.0,-3131.0,17.303945230945295,0.8136923274968204,-1.38321958077224,-0.33202489648528855,-1.9189167972350214,-0.3703619997012009,-0.14198700773425527,-1.0848684927461902,-0.23488550167404731,-0.06061293860458791,-0.40974722750654274,-0.1030003444152464,9.635144702140176,10.907070116612532,9503.245866544756,0,0
2026-03-12T20:03:44.681,55112,-0.10115502014160156,0.9463082061767577,10.21545993347168,-6.462303846514051,-1.154979320936126,-8.73912140260256,2769.0,8529.0,-3200.0,17.053754267773225,0.7974464574473898,-1.4793499162008683,0.0,-2.091476879283262,0.23759421068520403,-0.13985720261824144,-1.0912566173420315,-0.22878788587616242,-0.06208921646555518,-0.4213292992470078,-0.1054114941487243,10.259695571094815,10.930123106620826,9521.092479332401,0,0
2026-03-12T20:03:44.681,55122,-0.239420166015625,1.1031284149169922,10.697891567993164,-6.691661002207561,-1.1259956094075776,-8.58633315380899,2769.0,8529.0,-3200.0,16.820345021494497,0.7935233950584126,-1.5652132477389582,-0.14883826027792274,-2.0364284789227733,0.7550688250180748,-0.13922540144270537,-1.0949465885992904,-0.21791863966159195,-0.06341798900950225,-0.43184648636786765,-0.10748308986479488,10.757281176776567,10.944007954541611,9521.092479332401,0,0
2026-03-12T20:03:44.684,55132,-0.7984662536621093,1.1109095703125,9.419387881469726,-6.829498853738273,-0.9871354728500935,-8.748206989309148,2770.0,8533.0,-3189.0,16.6016639803284,0.8440786679659259,-1.6526953176320496,-0.707367115318783,-1.6069385079036451,-0.4517626736229552,-0.1441045865069548,-1.094350734073152,-0.21909972240185416,-0.06479417583969722,-0.44234720371489056,-0.1095644130017246,9.518221288309483,11.142154933529186,9521.276700106977,0,0
2026-03-12T20:03:44.695,55142,-0.48243163452148435,0.8301894256591796,8.704718685913086,-7.127041384463602,-0.986213415509891,-8.667862625286368,2770.0,8533.0,-3189.0,16.364156983276406,0.8690716779014844,-1.7393739438849132,-0.4022475079353364,-1.6444679829631905,-1.2143276037722703,-0.14590515566251352,-1.094133482694242,-0.2277743534629832,-0.06618697416892604,-0.45283525000329117,-0.11173031437981808,8.75751575307449,11.264953541298999,9521.276700106977,0,0
2026-03-12T20:03:44.704,55152,0.05386953735351562,0.9127893829345702,10.530297451782227,-7.356878073706514,-0.9902431715373924,-8.935409225019557,2773.0,8540.0,-3181.0,16.1205414947288,0.8419015751230149,-1.8287280361351088,0.14080332480371877,-2.0524732704590196,0.5611259768158341,-0.1423296655782592,-1.0979383421678495,-0.21883064728940246,-0.06754266055388392,-0.46335081879154466,-0.1138047022318594,10.56992198682961,11.616616312365865,9525.748789465319,0,0
2026-03-12T20:03:44.720,55162,-0.6733692169189452,0.8972270721435547,8.705317236328124,-7.568327827809993,-0.9939505470826937,-9.181552096774091,2773.0,8540.0,-3181.0,15.892452857364843,0.8854809996962988,-1.9205435571028497,-0.5907687949971341,-1.5019112918986248,-1.1790057439751909,-0.1460137932253071,-1.0962630932605333,-0.22716139415821704,-0.06893379568765085,-0.47383913627442587,-0.11596023985726812,8.777299738894238,11.940201954113919,9525.748789465319,0,0
2026-03-12T20:03:44.728,55172,0.04369418029785156,0.7392097625732421,9.773729727172851,-7.621398186951048,-0.9339466984380295,-9.066540124154114,2754.0,8538.0,-3177.0,15.643872957982673,0.8591682020890247,-2.011208958344391,0.12017492669152116,-1.929136376209991,-0.19737719383636865,-0.142639863299016,-1.0988211401672938,-0.225698138605132,-0.07028983412632037,-0.48434252032842273,-0.11809900402207613,9.8017413266367,11.881082298447415,9517.105074548668,0,0
2026-03-12T20:03:44.734,55182,-0.5363011718749999,0.9750386260986328,9.606734161376952,-7.733637551507159,-0.9226455967093286,-9.15097301178276,2754.0,8538.0,-3177.0,15.419969656339312,0.8848769236761787,-2.1027186884622187,-0.44818597746939426,-1.59904725455288,-0.279329404784761,-0.1449148972276043,-1.0980894385221303,-0.22506406116318492,-0.07166724411549782,-0.4948280912989304,-0.12022929498907427,9.670969988408904,12.016685555409412,9517.105074548668,0,0
2026-03-12T20:03:44.755,55202,-0.47165772705078124,0.977432827758789,9.728239895629882,-7.8076294742158545,-0.9854193148262409,-9.043285414742579,2760.0,8536.0,-3200.0,15.120921823235927,0.8936185277088329,-2.28358439675707,-0.38441788119915454,-1.580025687865316,-0.15407370506753004,-0.1503142060288136,-1.112744602995245,-0.22472335223556747,-0.07459885470783802,-0.5165659003754765,-0.12459903827175182,9.788589653836356,11.987958138280788,9524.751755295252,0,0
2026-03-12T20:03:44.764,55212,0.06943184814453125,0.7398083129882812,9.877877499389648,-7.943994726034684,-0.9846345501279465,-9.25640794741683,2769.0,8535.0,-3165.0,14.880107615694888,0.8644915681541545,-2.3761484762312386,0.1406168980282994,-1.8290154256233908,0.0,-0.14667441649280263,-1.1140692358927067,-0.22135250195203396,-0.07598953327389327,-0.5271788861416692,-0.12668575072798088,9.905786239085296,12.237550632931983,9514.768047619447,0,0
2026-03-12T20:03:44.796,55222,-0.3178302703857422,1.006163247680664,10.20229182434082,-8.010914172342154,-1.0424491519713694,-9.052480677477144,2769.0,8535.0,-3165.0,14.662484057934343,0.8678921633288248,-2.46667328300601,-0.2335331798113893,-1.6004863579366826,0.32172818719038965,-0.1467746020665528,-1.1131229879799924,-0.2148631917789281,-0.07737982201526424,-0.5377718059054477,-0.1287055482631244,10.256711901519331,12.132965528970042,9514.768047619447,0,0
2026-03-12T20:03:44.796,55232,-0.11372457885742186,0.93852705078125,10.267533819580077,-8.19443128245722,-1.1005166344478063,-9.123404174498484,2762.0,8532.0,-3191.0,14.440172691995807,0.8535130229654618,-2.5579073247509947,0.0,-1.651571824561226,0.37112195322827723,-0.1445729830355545,-1.1126941256322205,-0.20798469266294564,-0.07874672629377416,-0.5483498484146081,-0.13065460979456409,10.310965863637852,12.312446736407274,9518.726227810106,0,0
2026-03-12T20:03:44.797,55242,-0.45968671875,0.929548794555664,9.417592230224608,-8.36326702376308,-1.153938718326128,-8.934995255172751,2762.0,8532.0,-3191.0,14.225747403057635,0.8710587616393696,-2.6472572773027223,-0.3823181120883802,-1.3970961066147298,-0.44351101856364217,-0.14617022169409172,-1.1097651103978923,-0.20923350580585331,-0.08012822008220437,-0.5588880520190683,-0.13261419790777,9.474514037967431,12.292678718911297,9518.726227810106,0,0
2026-03-12T20:03:44.806,55252,-0.5674257934570313,1.0953472595214844,9.973645565795898,-8.328352003325449,-1.2713797184210134,-8.761659049393078,2759.0,8542.0,-3203.0,14.02433708377094,0.8940213592139425,-2.734873867796653,-0.47638298476378577,-1.3330434698193985,0.14279309404004614,-0.14867004076860363,-1.106249111919645,-0.20468849124247104,-0.08153330556940051,-0.5693805925951265,-0.1345264217373745,10.049644945078496,12.155020476227875,9530.847496419194,0,0
2026-03-12T20:03:44.822,55262,-0.8038532073974609,1.071405242919922,9.24520971069336,-8.418181404035023,-1.2135717799717227,-8.70950681324651,2759.0,8542.0,-3203.0,13.830208697002739,0.9427031806403867,-2.8219689359291182,-0.708629576473351,-1.1361718359043764,-0.5613836733362216,-0.15341999148533708,-1.1008466678245084,-0.20714779305619577,-0.08298443797876963,-0.5798086702140982,-0.1364613017682685,9.341733873767668,12.173497588876097,9530.847496419194,0,0
2026-03-12T20:03:44.827,55272,-0.6428431457519531,0.9187748870849609,8.773551983642578,-8.564239086834172,-1.2823396961105702,-8.656648707211179,2754.0,8538.0,-3206.0,13.628072006610777,0.9784500207380381,-2.90853542300123,-0.552401055927254,-1.1477507100567435,-1.0539286863837845,-0.15655984201394046,-1.0956393123011996,-0.2144217737212331,-0.08446548636251013,-0.5901742982737731,-0.13846691398597535,8.844919955141306,12.24451522408054,9526.825074493601,0,0
2026-03-12T20:03:44.834,55282,-0.5351040710449219,0.8583212951660156,8.731653454589843,-8.518124350131341,-1.3943866667631881,-8.651921688683064,2754.0,8538.0,-3206.0,13.423959456616384,1.0023901479641784,-2.995054639888061,-0.4447273321764124,-1.170585196025841,-1.1062608269517344,-0.15859200860566902,-1.0907349867975362,-0.22210211626088922,-0.08596535504211825,-0.6,-0.14054724721343564,8.790041175309423,12.221231751662835,9526.825074493601,0,0
2026-03-12T20:03:44.845,55292,-0.16879121704101563,0.8804676605224608,9.797073193359374,-8.690332938706199,-1.5413723187879866,-8.832938685295735,2768.0,8549.0,-3148.0,13.214031331706485,0.9869179055294292,-3.0833840267410184,0.0,-1.380294327958942,0.0,-0.15621312847658397,-1.0879698611259687,-0.21877058451697587,-0.0874399588405572,-0.6,-0.1425922181055468,9.838005739590566,12.486733801474335,9521.403730543097,0,0
2026-03-12T20:03:44.854,55302,-0.43574470214843747,0.7631517791748046,8.490437637329102,-9.019496547512142,-1.6180625332849476,-8.687279200228174,2768.0,8549.0,-3148.0,13.004021121600665,1.0000687710983214,-3.1702568187433,-0.3523867077656728,-1.1492039211101894,-1.3559127947156142,-0.1573409406209271,-1.0829699718320147,-0.22884476677717003,-0.08892435487851971,-0.6,-0.14473578510754517,8.535795531576579,12.6268865614181,9521.403730543097,0,0
2026-03-12T20:03:44.864,55312,-0.43514615173339843,0.9026140258789062,9.232640151977538,-9.302814872491659,-1.6886175306221518,-8.845955400795285,2758.0,8526.0,-3208.0,12.801083348089461,1.008719482769443,-3.2587163727512527,-0.33887030026071857,-1.1480614885970797,-0.5972618462195864,-0.15831869896918127,-1.0780338279172157,-0.2312951244607754,-0.09041703432634332,-0.6,-0.14690168761580077,9.286856757212826,12.947768945630585,9517.904391198726,0,0
2026-03-12T20:03:44.874,55322,-0.2998737579345703,0.7529764221191406,8.888473663330078,-9.241516511960619,-1.724259835489453,-8.660230188243856,2758.0,8526.0,-3208.0,12.590670895751128,1.0054855078250327,-3.3453186746336914,-0.21465615464764043,-1.1921845272077793,-0.9638856915365075,-0.15805828160792282,-1.073606338091454,-0.23731997165549837,-0.09190561952528013,-0.6,-0.1491256124450234,8.925349395215717,12.781951585516708,9517.904391198726,0,0
2026-03-12T20:03:44.884,55332,-0.2950853546142578,0.8888473663330078,9.63307037963867,-9.185122020272061,-1.7570507559673698,-8.489362992696543,2758.0,8537.0,-3183.0,12.390414049732236,0.9993035128283593,-3.4302123045606567,-0.19912550861736694,-1.1890579810279516,-0.2035432060614628,-0.15764879364368506,-1.0692144641332075,-0.2357650726603713,-0.09338862535425527,-0.6,-0.15133177990845548,9.678490065408802,12.630240611647025,9519.370882574121,0,0
2026-03-12T20:03:44.909,55342,-0.5536591339111328,0.8182184173583984,8.639476690673828,-8.860068356211272,-1.7091696223192487,-8.619970050841795,2758.0,8537.0,-3183.0,12.198438734177419,1.0222359005009831,-3.516412005069075,-0.46199634930783984,-0.9993062857652202,-1.1808443202840202,-0.159834725779712,-1.0630194140859968,-0.2438599131252633,-0.09489198563944033,-0.6,-0.1536166086606684,8.695779280993975,12.47902062471269,9519.370882574121,0,0
2026-03-12T20:03:44.930,55352,-0.04848258361816406,0.9570821136474609,10.672153900146483,-8.721994595031443,-1.7041433696068795,-8.496226105311038,2764.0,8531.0,-3203.0,12.006419424782328,0.9940052563326301,-3.601374266122185,0.0,-1.2899014232596522,0.8303767581814192,-0.15743720489301632,-1.0597796518938143,-0.23202280336029737,-0.09636989133068213,-0.6,-0.1557808998575771,10.715093354777174,12.294842511089826,9522.440128454471,0,0
2026-03-12T20:03:44.934,55362,-0.776319888305664,0.949300958251953,8.805275155639649,-8.81935697864844,-1.6312265341846708,-8.38238167542274,2764.0,8531.0,-3203.0,11.83175224970757,1.0381714809418634,-3.6851980828764126,-0.6715650253652526,-0.8348500484402823,-0.9811901673245789,-0.16169056231946882,-1.052106230092544,-0.23820718445804,-0.09788881015692295,-0.6,-0.15800480873045533,8.890259582534238,12.276248615726468,9522.440128454471,0,0
2026-03-12T20:03:44.935,55372,-0.0718260498046875,0.6865373260498047,9.219472042846679,-8.913808420356563,-1.5641430455962386,-8.258132604803556,2756.0,8542.0,-3191.0,11.630355873928387,1.0138690830049033,-3.767779408924448,0.0,-1.1895528772535822,-0.6382275355618123,-0.1592652038846768,-1.0480417324821034,-0.24092061791645325,-0.09938198073357396,-0.6,-0.16025360089471025,9.24527756372526,12.251501056622663,9525.95302318881,0,0
2026-03-12T20:03:44.935,55382,-0.5728127471923827,1.0235212097167967,9.750386260986328,-9.22021594184999,-1.6585237970704907,-8.168213703736345,2756.0,8542.0,-3191.0,11.454969320510424,1.0324815919971213,-3.8494615459618116,-0.45862219137099713,-0.9045216603784827,0.0,-0.16139365441141096,-1.0412306448496,-0.23730680864770645,-0.10089492136041038,-0.6,-0.16246404231220613,9.82067932215064,12.42911092193243,9525.95302318881,0,0
2026-03-12T20:03:44.944,55392,-0.7176619476318359,0.967856021118164,9.054272128295898,-9.365525495770283,-1.686817503060949,-8.426951729388657,2759.0,8530.0,-3207.0,11.282416265261595,1.0679744841776297,-3.9337310632556983,-0.6036281968643593,-0.7827063558907266,-0.7261967358546535,-0.16491848733435371,-1.0333218427823796,-0.2409002443661592,-0.10244156212752016,-0.6,-0.16470817171111185,9.134091510485831,12.71109501773952,9521.440542270902,0,0
2026-03-12T20:03:44.954,55402,-0.4537012145996093,0.8852560638427733,9.325415466308593,-9.123600529279393,-1.8933355174502193,-8.338161444696102,2759.0,8530.0,-3207.0,11.104654606779963,1.0748992842620742,-4.017112677702659,-0.34304301070161014,-0.9056025258114404,-0.4784614154987299,-0.16582368367974926,-1.0267422000198867,-0.2419995856433293,-0.10399569916535333,-0.6,-0.1669610393999776,9.378320569801774,12.503989054590631,9521.440542270902,0,0
2026-03-12T20:03:44.964,55412,-0.6314706878662109,1.1252747802734375,9.956287603759765,-8.901029560107775,-1.9711369687371287,-8.38818169985212,2753.0,8535.0,-3203.0,10.94713403525678,1.0934528888457629,-4.1009944947011805,-0.49581469414413804,-0.7524011607835577,0.19238603813169242,-0.16822010316187277,-1.0187522184533064,-0.2364745893830822,-0.10557222229677508,-0.6,-0.16915645950851463,10.03955484120357,12.388514858899295,9522.837969849114,0,0
2026-03-12T20:03:44.977,55422,-0.565031591796875,0.9648632690429687,9.232640151977538,-8.823093536762569,-2.0427143039210853,-8.434200334595658,2753.0,8535.0,-3203.0,10.78551071580756,1.1091779818386545,-4.185336498047137,-0.4417572665542485,-0.7496706473868837,-0.5473460066386373,-0.17004811069000403,-1.0108551910532677,-0.23831882870772653,-0.10716543070027144,-0.6,-0.1713681081477963,9.300100322232261,12.375596816719538,9522.837969849114,0,0
2026-03-12T20:03:44.985,55432,-0.32022447204589843,0.8373720306396484,9.251793765258789,-8.863587517236198,-1.7427117937537402,-8.291171624901176,2768.0,8527.0,-3226.0,10.613997236657745,1.1049887277957087,-4.268248214296149,-0.20700725337601114,-0.8680574046266606,-0.5544584842347433,-0.16953641047540766,-1.0042427286230413,-0.24020546234682286,-0.10875193401022049,-0.6,-0.17359639260849327,9.295129020356631,12.261474421347545,9527.781955943366,0,0
2026-03-12T20:03:44.994,55442,-0.4291606475830078,0.9558850128173828,9.561842880249023,-8.80328100366218,-1.7154899722046604,-8.574219358323717,2768.0,8527.0,-3226.0,10.453707224105736,1.1098732959001607,-4.353990407879386,-0.3032284126834087,-0.7741050302718172,-0.22356342950607377,-0.16998016418320813,-0.9968040222418731,-0.23880448019225534,-0.11034128391640052,-0.6,-0.17580845297300543,9.619081779761085,12.407977267823606,9527.781955943366,0,0
2026-03-12T20:03:45.006,55452,-0.5488707305908203,0.8074445098876952,8.513182553100586,-8.9819453526375,-1.7977629695502388,-8.668769614535869,2773.0,8530.0,-3200.0,10.289700790068906,1.1306045966806546,-4.4406781040247445,-0.4357274011614527,-0.6945597657278817,-1.2769822889122793,-0.17172237662190032,-0.9886933756006647,-0.24780068853515744,-0.11194644917493692,-0.6,-0.17810817339849866,8.568984939761727,12.611695391276813,9523.152261725107,0,0
2026-03-12T20:03:45.046,55462,-0.38307226562499996,0.9828197814941406,9.680954412841796,-9.078023870767963,-1.8441858344252442,-8.516731460007145,2773.0,8530.0,-3200.0,10.132889670503253,1.1292965630207334,-4.525845418624816,-0.24922242264790057,-0.7182718134278323,0.0,-0.17160138183565365,-0.9809379523289189,-0.24408367820713006,-0.11354880053030016,-0.6,-0.18036846117038938,9.738252277852958,12.583570779075513,9523.152261725107,0,0
2026-03-12T20:03:45.046,55472,-0.49200844116210934,0.8002619049072265,8.602366564941406,-9.083489278179696,-1.838114382305371,-8.850027089548037,2760.0,8531.0,-3192.0,9.971146277360354,1.1431426415137564,-4.614345689520296,-0.3755033061109484,-0.6733185122539583,-1.1875525189177605,-0.1727260686733117,-0.9728560703896866,-0.25211981534536304,-0.11516078515581625,-0.6,-0.18270676966451918,8.653508071310867,12.814500436418793,9517.585040334548,0,0
2026-03-12T20:03:45.052,55482,-0.19572598571777342,0.9241618408203125,10.024522351074218,-8.844615013974101,-1.9593579146477706,-8.97617126384761,2760.0,8531.0,-3192.0,9.813467864746023,1.1234031252364358,-4.7041074021587725,0.0,-0.7953507650167029,0.23061578594178123,-0.170135177643212,-0.9660974343692558,-0.24606645262365603,-0.11674527479531611,-0.6,-0.18498226675656498,10.068934011934935,12.752958430930155,9517.585040334548,0,0
2026-03-12T20:03:45.052,55492,-0.044891281127929686,0.7392097625732421,9.451709603881836,-8.67850922749032,-1.7635848912320466,-9.23856536761785,2769.0,8533.0,-3229.0,9.647861761996232,1.0932502395519075,-4.796493055834951,0.0,-0.8635946841077097,-0.3655980926830331,-0.16758314997856383,-0.9601123804921778,-0.24597659704722907,-0.11830268518880664,-0.6,-0.18725459069431025,9.480678284612186,12.797571806087454,9534.458086330864,0,0
2026-03-12T20:03:45.055,55502,-0.469862075805664,0.9894038360595703,9.71028338317871,-8.52569190392524,-1.5834737096895806,-9.479967943086471,2769.0,8533.0,-3229.0,9.506434637634554,1.102594646982076,-4.891292735265815,-0.334855968583795,-0.6015572135957459,0.0,-0.16836773401943575,-0.9516360333387133,-0.24228694809152063,-0.119866376166472,-0.6,-0.18948778271505023,9.771862345670163,12.84774702552481,9534.458086330864,0,0
2026-03-12T20:03:45.064,55512,0.0939724151611328,0.7990648040771484,10.111312161254883,-8.731441429660002,-1.661673861694902,-9.258155873493212,2773.0,8539.0,-3149.0,9.345611103530493,1.0617258686001658,-4.983874294000747,0.20601953832277858,-0.8747161490818376,0.2967354032513132,-0.16381292555666482,-0.9459774469070886,-0.23572980014812236,-0.12138300091661662,-0.6,-0.1916532356358149,10.14327210510824,12.834043775837763,9514.21310461354,0,0
2026-03-12T20:03:45.075,55522,-0.3190273712158203,0.8319850769042968,9.313444458007812,-8.749999286018909,-1.6555692210519928,-9.449210720686926,2773.0,8539.0,-3149.0,9.195811063267303,1.0588040591989398,-5.078366401207616,-0.20510189539198723,-0.6514821420126777,-0.4756409690688894,-0.16337598534292594,-0.9382048843023072,-0.23687891669122907,-0.12289374400927583,-0.6,-0.19382800277792447,9.355972707536761,12.984258938998824,9514.21310461354,0,0
2026-03-12T20:03:45.085,55532,-0.21308394775390624,1.0420762725830077,10.722432135009765,-8.771950562649593,-1.5133675858068578,-9.322542155714899,2762.0,8555.0,-3170.0,9.054734385532372,1.0450123682524481,-5.171591822764765,0.0,-0.6541766870031027,0.948261551574813,-0.16092534556278204,-0.9305754514047532,-0.22398535665784872,-0.12437849446743875,-0.6,-0.19587178848815848,10.775058172305194,12.889809555164916,9532.343311064704,0,0
2026-03-12T20:03:45.094,55542,-0.3842693664550781,0.8571241943359375,9.332598071289063,-8.831170127393722,-1.4849811057715776,-9.332836344233318,2762.0,8555.0,-3170.0,8.910637889505756,1.0499293562784278,-5.264920186207098,-0.26687518155885115,-0.576726500634039,-0.44845168132377644,-0.161140185917695,-0.9222975756649272,-0.2250428253690202,-0.12586390643028908,-0.6,-0.19792409452510684,9.379750081464865,12.934317489984238,9532.343311064704,0,0
2026-03-12T20:03:45.105,55552,0.022744915771484374,0.8355763793945312,10.256161361694335,-8.875896029397346,-1.4930118856025343,-9.542306997670261,2770.0,8545.0,-3212.0,8.759415329875612,1.0175745877775892,-5.360343256183801,0.13536026437395832,-0.7519708281159992,0.45511244933581096,-0.1573897845248461,-0.9158700246868959,-0.21718432536252716,-0.127310366471262,-0.6,-0.19989584184095338,10.29016769028121,13.11740209237366,9539.752040802738,0,0
2026-03-12T20:03:45.114,55562,-0.3399766357421875,0.9139864837646484,9.738415252685547,-8.946312151923607,-1.4955221542665267,-9.442337072002982,2770.0,8545.0,-3212.0,8.620328662880027,1.0174404674505235,-5.45476662690383,-0.21861976057432442,-0.5376448448762126,0.0,-0.1571823423986305,-0.9074277760386232,-0.21392656048208925,-0.1287533077053531,-0.6,-0.2018330723383285,9.787118423677807,13.093159168622362,9539.752040802738,0,0
2026-03-12T20:03:45.124,55572,-0.037110125732421874,0.9630676177978515,10.672153900146483,-9.18182669196484,-1.5222218453398386,-9.657681813559817,2772.0,8541.0,-3223.0,8.47792980598432,0.9901613755042931,-5.551343445039429,0.0,-0.6322168444487358,0.8899138054757625,-0.15482460726265104,-0.9000436953158639,-0.20195201109092165,-0.13017125222420164,-0.6,-0.2036487398567885,10.715584224217292,13.412453867941982,9540.460890334387,0,0
2026-03-12T20:03:45.133,55582,-0.3489548919677734,0.8690952026367187,9.387664709472656,-9.261914702949117,-1.463858731858993,-9.265555073353081,2772.0,8541.0,-3223.0,8.338870143528263,0.9926860728863217,-5.643998995772959,-0.23422568434722252,-0.48085818748316056,-0.38755989438601723,-0.15480936114453142,-0.891279493032835,-0.2027401958842601,-0.13158762648981132,-0.6,-0.20547046567381547,9.434264395561147,13.182429865881474,9540.460890334387,0,0
2026-03-12T20:03:45.144,55592,-0.690128628540039,1.1372457885742187,9.883264453125,-9.335595673054652,-1.4101646674566153,-8.904798472362884,2761.0,8556.0,-3187.0,8.220291953795563,1.0234296494382977,-5.733046980496588,-0.5385610327186485,-0.2349187365857932,0.14841338298267814,-0.15779204689964213,-0.8802242501927127,-0.1982372211236168,-0.13303238141184892,-0.6,-0.20724538504716658,9.97238796667902,12.978341450027276,9538.617614728038,0,0
2026-03-12T20:03:45.217,55602,-0.29448680419921874,0.8900444671630859,9.5630399810791,-9.296065092381012,-1.4534490550356958,-9.163146301890928,2761.0,8556.0,-3187.0,8.085180446356036,1.0201053135779692,-5.824678443515497,-0.17008059901410477,-0.4488545789171705,-0.20976313665121005,-0.15710046009643644,-0.871442104042156,-0.19732982970277696,-0.13446878262680048,-0.6,-0.20900946466085016,9.608883145875614,13.133643458965464,9538.617614728038,0,0
2026-03-12T20:03:45.217,55612,-0.5728127471923827,1.0815805999755859,9.743802206420899,-9.323111592307603,-1.5079048379499134,-9.21546045139819,2775.0,8540.0,-3188.0,7.967080253797965,1.0401094716800023,-5.916833048029479,-0.42152895053834283,-0.2372004606446112,0.0,-0.15889601335779258,-0.8607068970188732,-0.1943698822572353,-0.13592168501761803,-0.6,-0.2107422103199391,9.820367227117448,13.195412009263572,9528.67089367662,0,0
2026-03-12T20:03:45.217,55622,-0.3226186737060547,0.9331400970458984,9.694122521972655,-9.269945591752261,-1.5336139143285543,-9.234321176261945,2775.0,8540.0,-3188.0,7.838738932604918,1.0378616314051055,-6.009176259792098,-0.1871426177932528,-0.38021383624152116,0.0,-0.15835592794268924,-0.851541399850569,-0.19145433402337678,-0.13736773905274788,-0.6,-0.2124440969065127,9.744272405898563,13.174086325002927,9528.67089367662,0,0
2026-03-12T20:03:45.217,55632,-0.7787140899658203,1.0127473022460938,9.04649097290039,-9.255179212704764,-1.5133638255725137,-9.212648652892696,2766.0,8523.0,-3242.0,7.725808632616533,1.0807288163564241,-6.101302746321025,-0.6260866248723508,-0.14687587118377188,-0.6930615370779307,-0.16214754227854156,-0.8402150061839706,-0.19540917515324374,-0.13885022526105778,-0.6,-0.2141837904693871,9.136249320967893,13.146159421271273,9529.052891027522,0,0
2026-03-12T20:03:45.217,55642,-0.35015199279785153,0.9600748657226562,9.80724855041504,-9.378179509834725,-1.504489841477932,-8.841490419197866,2766.0,8523.0,-3242.0,7.601413261537584,1.0802246341922217,-6.189717650513003,-0.2007427277573912,-0.32592886574185187,0.0,-0.16169264501277375,-0.8308221804187683,-0.19247803752594508,-0.14032668455947434,-0.6,-0.2158924622738019,9.860348588943019,12.976351314393497,9529.052891027522,0,0
2026-03-12T20:03:45.218,55652,-0.26276363220214843,0.74699091796875,8.989030133056641,-9.471827588072337,-1.515837971232868,-8.895146795418134,2753.0,8536.0,-3194.0,7.4653502688694084,1.0741195843889724,-6.278669118467184,-0.13998330332748357,-0.41443159695788423,-0.7934178373866008,-0.16064609087535786,-0.822441998942522,-0.19740603266131393,-0.14179121232275968,-0.6,-0.21764865607781464,9.02384080593935,13.081931016682404,9520.711160412335,0,0
2026-03-12T20:03:45.218,55662,-0.15682020874023436,0.8774749084472656,9.980828170776366,-9.323837478587526,-1.4579855676805802,-8.83719358837005,2753.0,8536.0,-3194.0,7.336894716757181,1.057097241891054,-6.367041054350885,0.0,-0.40489448446487797,0.20570504649245613,-0.15823639951222748,-0.8140935796303632,-0.19241874746344353,-0.14323020274156406,-0.6,-0.21935327070889662,10.020553166736205,12.9288691601782,9520.711160412335,0,0
2026-03-12T20:03:45.249,55672,-0.6907271789550781,1.0690110412597655,9.592967501831055,-9.1876865778615,-1.4047613564124755,-9.10094980861752,2761.0,8542.0,-3187.0,7.231722072425716,1.0888009763482778,-6.458050552437061,-0.5205340437959636,0.0,-0.1440406171416555,-0.1609901138509343,-0.8018821759359077,-0.19095126633033718,-0.14469526377619332,-0.6,-0.22104152058882778,9.677030233148457,13.008236872861035,9526.06183057826,0,0
2026-03-12T20:03:45.249,55682,-0.5901707092285156,0.9097966308593749,9.05307502746582,-9.316086285778923,-1.37530727716777,-9.343605531245192,2761.0,8542.0,-3187.0,7.117563615218418,1.1145901579293989,-6.551486607749513,-0.4354050309116102,-0.17037615485682944,-0.7008500212286304,-0.16286400169764964,-0.7915321484222089,-0.19499037004448413,-0.14617757988937663,-0.6,-0.22276843286498335,9.117795722019638,13.265892284887002,9526.06183057826,0,0
2026-03-12T20:03:45.249,55692,-0.1466448516845703,1.007360348510742,10.606313354492187,-9.229335968282463,-1.4555265974333726,-9.200995137526066,2755.0,8537.0,-3145.0,7.001274162285843,1.0953631169601319,-6.643496559124773,0.0,-0.29759372830501984,0.844222517851362,-0.1604210416721849,-0.7825904644196802,-0.18374992269298096,-0.14763400851579236,-0.6,-0.22438132615982123,10.655053381281418,13.113257093950637,9505.862349098055,0,0
2026-03-12T20:03:45.254,55702,-0.6159083770751953,0.9594763153076171,9.241618408203124,-8.964159822527183,-1.4220112989069955,-9.22101308749959,2755.0,8537.0,-3145.0,6.896867328303529,1.1218136380147843,-6.735706689999769,-0.44935637352792873,-0.10524530684509092,-0.5064107016602275,-0.16244088632635223,-0.7718882737258091,-0.1859818192639395,-0.1491091589616768,-0.6,-0.22601490320810816,9.31168345313706,12.938522319719066,9505.862349098055,0,0
