recv_time,timestamp,ax,ay,az,gx,gy,gz,mx,my,mz,roll,pitch,yaw,ax_w,ay_w,az_w,vx,vy,vz,x,y,z,a_norm,g_norm,m_norm,stationary,bias_ready
2026-03-12T18:35:10.102,3247543,-0.4016273284912109,1.1055226165771483,9.994594830322265,-133.0,-36.0,-149.0,2147.0,9219.0,-3479.0,6.311944777118059,2.2872268241119484,0.0,0.0,0.0,0.2569184818586656,0.0,0.0,0.0025306470463078564,0.0,0.0,2.5281163992615485e-05,10.063568481858667,202.94334184693028,10084.791073691116,0,0
2026-03-12T18:35:10.107,3247553,-0.44532150878906246,0.7918821990966797,8.397662322998046,-135.79999999999998,-38.56,-146.04000000000002,2160.0,9215.0,-3471.0,4.960439768184683,1.9184343065932976,-1.4604000000000001,-0.1610531706958248,0.0,-1.3617873319467986,-0.0015863737313538745,0.0,-0.010920917879062726,-1.584787357622521e-05,0.0,-8.384408678321376e-05,8.446663314856186,203.11621107139626,10081.154001402816,0,0
2026-03-12T18:35:10.107,3247563,-0.4836287353515625,0.967856021118164,9.6013472076416,-138.37599999999998,-40.9152,-143.63680000000002,2160.0,9215.0,-3471.0,3.6093727207930906,1.5296793990041189,-2.8967680000000007,-0.20747494681588563,0.37245611715313764,-0.15394360126401807,-0.0036062063515200395,0.003668692753958406,-0.012273448583327363,-5.1858027154334185e-05,3.665024061204448e-05,-0.0002063719940438709,9.662117274850248,203.6013292718886,10081.154001402816,0,0
2026-03-12T18:35:10.114,3247573,-0.4070142822265625,0.7637503295898437,8.677185366821288,-139.62591999999998,-40.361984,-141.42585600000004,2153.0,9227.0,-3471.0,2.2553684523270485,1.1492971816945479,-4.311026560000001,-0.20006454175684485,0.4379596988387471,-1.099716753248467,-0.005522748992552161,0.007927565396210689,-0.022921556874074853,-0.00010697843156277594,0.00011580996867957721,-0.0004351519752218348,8.720236297375346,202.79487181286265,10090.628275781444,0,0
2026-03-12T18:35:10.124,3247583,-0.3459621398925781,0.939125601196289,9.783306533813477,-140.05584639999998,-40.41302528,-141.55178752000003,2153.0,9227.0,-3471.0,0.9242354430623012,0.76422970192776,-5.726544435200001,-0.13623466008565027,0.7987761477093696,0.0,-0.0067818191595075345,0.015676596970204817,-0.02257773352096373,-0.00017462182653469344,0.00027230336244324376,-0.0006602683811210407,9.83436492263831,203.18897921198763,10090.628275781444,0,0
2026-03-12T18:35:10.134,3247593,-0.21068974609375,1.0797849487304687,10.740388647460938,-139.251378688,-39.2599832576,-139.74764451840002,2147.0,9208.0,-3479.0,-0.3751400514815039,0.38282794454180435,-7.124020880384001,0.0,1.1584394987594402,0.9276068228504144,-0.006680091872114921,0.02685207707843223,-0.013102140313072691,-0.0002411813225105868,0.0005402833090943386,-0.0007904984944675158,10.796586219871617,201.15093064745415,10074.736423351233,0,0
2026-03-12T18:35:10.145,3247603,-0.5877765075683593,1.0342951171875,9.515155947875977,-137.39126839296,-37.399184596992,-138.40783295692802,2147.0,9208.0,-3479.0,-1.6297617411902692,0.061416158561177846,-8.508099209953281,-0.3782565830867574,1.3755973292780599,-0.3241348131035746,-0.010305717837437757,0.039998929615644635,-0.01609833611744681,-0.00034389426238407944,0.0009393323326455341,-0.0009505303737863419,9.589235648615938,198.57438873877754,10074.736423351233,0,0
2026-03-12T18:35:10.154,3247613,0.006584054565429687,0.814028564453125,9.83837317199707,-137.8399669215232,-34.48724982923264,-137.73520632037378,2135.0,9232.0,-3480.0,-2.8920906683003853,-0.2797776897056855,-9.885451273157019,0.1842106411229319,1.2970194143957499,0.0,-0.00833665725481531,0.05217458690320811,-0.015856861075685107,-0.00042683357409730035,0.0014596171234759377,-0.0011079898855586498,9.871994353978927,197.8893982552538,10094.476162733756,0,0
2026-03-12T18:35:10.163,3247623,-0.27353753967285155,0.929548794555664,9.700108026123047,-137.93276956780136,-34.44826984289403,-137.83638981474388,2135.0,9232.0,-3480.0,-4.125239106715653,-0.5907777080976743,-11.263815171304458,0.0,1.6664131627655898,-0.20187302823795505,-0.008211607395993081,0.06780613775290105,-0.017607457487693687,-0.000508440698409174,0.002135540822503943,-0.0012827803959751512,9.748383428319125,198.017682475518,10094.476162733756,0,0
2026-03-12T18:35:10.173,3247633,-0.10474632263183593,1.0486603271484374,10.727220538330078,-139.77814800237724,-34.81240825546251,-140.72947862956437,2146.0,9228.0,-3470.0,-5.356425477212314,-0.9164663404792301,-12.671109957600102,0.18136148302417043,2.055764547793018,0.7728046593065585,-0.006302022677265106,0.08703832648236876,-0.009731219731208681,-0.0005708894642566432,0.003002918163240303,-0.0013787125006939507,10.778864539078809,201.3817781798256,10089.707627082164,0,0
2026-03-12T18:35:10.186,3247643,-0.5877765075683593,1.0133458526611328,9.300874899291992,-143.23589616218706,-33.70741559502551,-144.59112033919922,2146.0,9228.0,-3470.0,-6.593683497861373,-1.180814958340434,-14.117021160992094,-0.2462187483671956,2.201170232531946,-0.6977065449333075,-0.008632747008523007,0.1074142783755729,-0.016457660902833633,-0.0006565597174075314,0.004072983886049037,-0.0015417458206125646,9.374359974538773,206.2990642160681,10089.707627082164,0,0
2026-03-12T18:35:10.194,3247653,-0.009576806640625,0.7846995941162109,9.599551556396484,-146.4170244692121,-32.69082234742347,-148.1438307120633,2149.0,9230.0,-3482.0,-7.866888546338644,-1.4842527842906907,-15.598459468112727,0.3185385518935195,2.0822624579922926,-0.40824846042215235,-0.005365651067243994,0.1263133494111634,-0.02023204332444933,-0.0007095060118518914,0.00533078126278051,-0.001742322187603201,9.631574910270166,210.83934523284103,10096.307493336364,0,0
2026-03-12T18:35:10.203,3247663,-0.4860229370117187,1.0600327850341795,9.865307940673828,-147.50366251167512,-30.955556559629592,-150.69232425509824,2149.0,9230.0,-3482.0,-9.109802305826971,-1.7248362838136573,-17.10538271066371,0.0,2.720857196464524,-0.2525741566564932,-0.005285166301235334,0.15121909255517152,-0.022416418117649047,-0.0007615953171893804,0.0068361292161438925,-0.0019645198824109118,9.933991572624315,213.12849064749238,10096.307493336364,0,0
2026-03-12T18:35:10.213,3247673,-0.28790274963378903,0.7870937957763672,8.934562045288086,-147.6233695107411,-30.959112034859224,-150.15693831469036,2149.0,9225.0,-3465.0,-10.351727999709915,-1.9763332569731793,-18.606952093810616,0.20397946396614475,2.4423134634260304,-1.1740199892589622,-0.0031966910866502783,0.17300759378159034,-0.03364426874008509,-0.0007927686658278273,0.008557638948805837,-0.0022986616072419508,8.97378423953344,212.83381302728543,10085.883749082179,0,0
2026-03-12T18:35:10.223,3247683,-0.35015199279785153,0.958877764892578,9.662997900390625,-148.93349994988182,-33.042383072070486,-149.10438324951514,2149.0,9225.0,-3465.0,-11.578441793211068,-2.2411784930403384,-20.097995926305767,0.3200800382338553,2.9483682854536752,-0.5535286546660654,4.0476562529504975e-06,0.19945390748658517,-0.03859186195744456,-0.0007919354610760325,0.010541625845648018,-0.0026818956465895797,9.71676805368016,213.31925274250608,10085.883749082179,0,0
2026-03-12T18:35:10.233,3247693,-0.7278373046875,1.1270704315185547,9.749787710571288,-148.93881995389125,-35.358992426304845,-148.61603258955392,2160.0,9218.0,-3481.0,-12.772901137521796,-2.4922294428287532,-21.584156252201307,0.1467518307214674,3.4421158294679177,-0.5877185099838496,0.0014494924740156103,0.2303669397945454,-0.04380201135142381,-0.0007766630957995405,0.012832449948349879,-0.003116795844343714,9.841666286808607,213.35359283902503,10087.342811662544,0,0
2026-03-12T18:35:10.243,3247703,-0.41419688720703124,0.9253589416503906,9.421183532714844,-149.66371435757995,-37.570273032200454,-149.2067499823896,2160.0,9218.0,-3481.0,-13.971350295858116,-2.7873334750838503,-23.076223752025204,0.46389536201041925,3.2508999803089482,-0.9182869448309443,0.005997119402708006,0.25893280050367035,-0.05219010758773725,-0.0007159752098706881,0.015406356175433195,-0.0036350582233008657,9.475576361855866,214.64716874752548,10087.342811662544,0,0
2026-03-12T18:35:10.254,3247713,-0.14963760375976562,0.7835024932861328,9.397241516113281,-150.09061720897355,-36.88465118962442,-154.15020998379842,2156.0,9228.0,-3460.0,-15.16868175325168,-3.0952004543371046,-24.617725851863188,0.768300418277643,3.1845064164221504,-0.9628358323092208,0.013474921731702168,0.2864161966978735,-0.060891188922167015,-0.0005806447665611127,0.018252247624269517,-0.0042397261424100136,9.431034708959967,218.28870356846235,10088.40522580254,0,0
2026-03-12T18:35:10.264,3247723,-0.3687070556640625,0.9654618194580078,9.779116680908203,-150.72336783225566,-38.25387909445447,-156.21819318509455,2156.0,9228.0,-3460.0,-16.34120125953253,-3.393341268566892,-26.179907783714135,0.8083103837447321,3.70092879093228,-0.7320180579031934,0.021234655185612246,0.3185741023380883,-0.06718819895868097,-0.00036792991649028527,0.02141655065900275,-0.004906696523864827,9.833574348961049,220.42009154903755,10088.40522580254,0,0
2026-03-12T18:35:10.274,3247733,-0.5662286926269531,1.0115502014160156,9.503184939575196,-152.9854984056752,-37.51356876689811,-156.440737730287,2141.0,9225.0,-3471.0,-17.511852306656543,-3.6610890595444654,-27.744315161017006,0.7851954245862067,3.907961131234201,-1.1023016223166238,0.028650310290002198,0.35228890794567386,-0.07703804695411949,-8.134538677667304e-05,0.02491450029872103,-0.005671399916412616,9.573629026555585,222.00345714798698,10086.245436236419,0,0
2026-03-12T18:35:10.284,3247743,-0.4429273071289062,1.014542953491211,9.854534033203125,-155.0666585332212,-36.832483265546266,-156.64547871186403,2141.0,9225.0,-3471.0,-18.688411104178403,-3.9305726447172806,-29.310769948135647,1.0924204271608362,4.110043381737755,-0.8483307365447619,0.038980896843186404,0.38748850163660564,-0.0842385340047736,0.0003081551180735358,0.028760595929772,-0.006507271471203891,9.916517685933798,223.47283148748622,10086.245436236419,0,0
2026-03-12T18:35:10.316,3247753,-0.469862075805664,0.8595183959960937,8.926182339477538,-158.26132585056348,-37.48588460430257,-153.5538404149149,2155.0,9237.0,-3464.0,-19.88445663189515,-4.195859869355556,-30.846308352284797,1.0598731798211893,3.8447001565699654,-1.7610783640189105,0.04883593421177732,0.4195464706542707,-0.10032157788028827,0.0007957179457311177,0.03292310457567839,-0.007502976762756767,8.979770230965645,223.67525726086575,10097.79629424163,0,0
2026-03-12T18:35:10.323,3247763,-0.43574470214843747,1.0396820709228516,9.997587582397461,-158.4804197825184,-37.60701383595836,-154.6295331817217,2155.0,9237.0,-3464.0,-21.05816637697375,-4.4661167573625,-32.39260368410201,1.4885034883549604,4.4589433244782875,-0.9114405299536408,0.06276515455889703,0.45717386534056775,-0.1077944434321273,0.0014219461218287679,0.03745734838585498,-0.008572340275880962,10.060942784936051,224.5899006547231,10097.79629424163,0,0
2026-03-12T18:35:10.323,3247773,-0.0939724151611328,0.8122329132080077,9.525929855346678,-158.76198619991692,-38.51845272908169,-150.73917052718397,2147.0,9224.0,-3473.0,-22.23299598620701,-4.770084426402471,-33.899995389373856,1.7645246120055111,4.062655660486911,-1.3335646937473093,0.07920424466876785,0.49033341561625526,-0.11931313901405638,0.00221177457994793,0.04231832185947552,-0.009755706194355503,9.560956684824735,222.28661001960634,10087.294681925378,0,0
2026-03-12T18:35:10.323,3247783,-0.4171896392822265,1.0624269866943359,10.150816488647461,-156.62102730392357,-36.95697651075515,-152.52003688500926,2147.0,9224.0,-3473.0,-23.352592241213287,-5.027448726059125,-35.42519575822395,1.9235901576935701,4.766476441789082,-0.9792847691696736,0.09696354405201799,0.5299282073336339,-0.12716939690516682,0.0031782286104476416,0.047569986328879044,-0.011016372763243763,10.214787011160732,221.71676968140562,10087.294681925378,0,0
2026-03-12T18:35:10.334,3247793,-0.8589198455810546,1.0660182891845702,8.989030133056641,-154.73134511960967,-38.32041838989474,-156.3984339342085,2156.0,9215.0,-3477.0,-24.424959439855588,-5.248187095923131,-36.989180097566035,1.5713971747002842,4.684992809102802,-2.1739339483570284,0.11098735306203551,0.568126463393292,-0.14667510534290606,0.004283814038926929,0.05319799971184915,-0.01247064069285615,9.092678429759257,223.31751781974768,10082.365297885213,0,0
2026-03-12T18:35:10.344,3247803,-0.3705027069091797,0.9708487731933593,9.64683703918457,-155.0728375100409,-40.13478491870316,-156.9265592194718,2156.0,9215.0,-3477.0,-25.499849827218775,-5.53196570530038,-38.55844568976075,2.2216058169819783,4.660734744650645,-1.5918278052851615,0.13120536006337746,0.6055128036772014,-0.16015448264482132,0.005590271771921143,0.05919387462087255,-0.01405811333378506,9.702643168581508,224.24167962791506,10082.365297885213,0,0
2026-03-12T18:35:10.353,3247813,-0.6757634185791015,1.1767501159667968,9.964667309570311,-154.66701050923763,-38.84400212520691,-156.29243448191406,2143.0,9215.0,-3475.0,-26.539797199188577,-5.773805598594186,-40.12137003457989,2.3881120688203996,5.186782269476379,-1.528352949305539,0.15276018354030774,0.6475199169763857,-0.17280644195580855,0.007110755733716896,0.06560340471684578,-0.0157703915755898,10.056639181343677,223.2891974934101,10078.903660617061,0,0
2026-03-12T18:35:10.363,3247823,-0.4429273071289062,0.9864110839843749,9.524134204101562,-154.29364966849863,-37.656481955190365,-155.70903972336092,2143.0,9215.0,-3475.0,-27.57279738058974,-6.018387063998436,-41.6784604318135,2.5584784518024346,4.795368878652129,-1.9112748288594759,0.1756697935374571,0.6850415016764634,-0.18904040239073724,0.008858586215422376,0.0723813659138768,-0.017643134803897672,9.585318135760806,222.4181782427825,10078.903660617061,0,0
2026-03-12T18:35:10.373,3247833,-0.8409633331298828,1.0905588562011719,9.009979397583008,-155.07015769501876,-38.80396339877513,-156.69231654549205,2152.0,9223.0,-3486.0,-28.583124705536708,-6.230921141140215,-43.24538359726842,2.416227354929063,4.959875905246861,-2.551462678833018,0.19683458608044652,0.7236206568179979,-0.21133670374138142,0.010816105144150615,0.07953795490957473,-0.019736745339470174,9.11461829652663,223.84142477969564,10091.928903832013,0,0
2026-03-12T18:35:10.383,3247843,-0.5087678527832031,0.9923965881347656,9.433154541015625,-158.58454507941727,-36.17964632687312,-157.03693122185268,2152.0,9223.0,-3486.0,-29.6263516114158,-6.447772505446365,-44.815752909486946,2.922025885299648,4.886443712895626,-2.2031946751366718,0.22266402225944135,0.7608978175377499,-0.2298681207353569,0.013029702621378283,0.08705978615186727,-0.02201339112027692,9.498847314850938,226.09427793281336,10091.928903832013,0,0
2026-03-12T18:35:10.397,3247853,-0.8726865051269531,1.0181342559814452,8.751405618286132,-158.2977814730639,-37.20527462072327,-153.99397672410447,2147.0,9229.0,-3479.0,-30.64165051288394,-6.632676148248335,-46.35569267672799,2.704386453922446,4.896232772082273,-2.9438169155783784,0.2459622684966858,0.797712243079694,-0.2554166955427736,0.015473835981038795,0.09494187167408155,-0.024542990517628954,8.853546148024737,223.9566139818187,10093.933376043256,0,0
2026-03-12T18:35:10.403,3247863,-0.6248866333007812,0.8469488372802734,8.507197048950195,-153.79395895521878,-35.02885265106541,-154.3144585861761,2147.0,9229.0,-3479.0,-31.611614549198563,-6.815513303208889,-47.89883726258975,2.886564177817599,4.532351929701049,-3.1278970849872954,0.2707054916207388,0.8303902259410539,-0.2823952313967568,0.018162710006348937,0.1031425281595586,-0.027339575888764928,8.572059686394821,220.6638947764546,10093.933376043256,0,0
2026-03-12T18:35:10.416,3247873,-0.23104046020507812,0.8631096984863281,9.48044002380371,-152.77044223880128,-33.266544438980176,-157.889301899282,2148.0,9219.0,-3459.0,-32.56420023030632,-7.020101758270181,-49.47773028158257,3.6852681029923575,4.661597048680173,-2.3658574981480855,0.30294480006090246,0.8638511034814379,-0.3014629992825641,0.021170965848951003,0.1116692581551786,-0.03032385167570898,9.522451422339325,222.2037413163698,10078.122146511223,0,0
2026-03-12T18:35:10.425,3247883,-0.3393780853271484,0.9247603912353515,9.584587796020507,-151.10880685969718,-33.405220883861766,-156.37815774733946,2148.0,9219.0,-3459.0,-33.481492877123245,-7.213563293841278,-51.041511859055966,3.908772701773401,4.802088603129151,-2.4245010243160543,0.3369020391724569,0.8981939096700384,-0.3208223893828388,0.024515446254434897,0.1205305460546271,-0.03349854349396783,9.635075634660236,220.00888280547366,10078.122146511223,0,0
2026-03-12T18:35:10.433,3247893,-0.2549824768066406,0.7445967163085937,8.89984612121582,-149.1001023109214,-30.33280321315283,-152.02790512755232,2156.0,9227.0,-3471.0,-34.3761696478641,-7.379607303274576,-52.56179091033149,3.7834719055700208,4.335384786717941,-2.971704469449427,0.36911570685473477,0.9274245411741596,-0.34528134256617304,0.028178396719659264,0.12967498667490232,-0.03691440556270993,8.934578966842045,215.08929168456325,10091.268800304548,0,0
2026-03-12T18:35:10.444,3247903,-0.32441432495117184,0.9528922607421875,9.782109432983399,-148.69209412604766,-27.426178956100603,-152.1056727173481,2156.0,9227.0,-3471.0,-35.24168831782605,-7.510703229833098,-54.08284763750497,4.442489232244921,4.815712575916936,-2.4734300332171886,0.40733749018952625,0.9609479419293291,-0.3644654082548697,0.03221951984993297,0.1391451816281014,-0.04051850058561337,9.833763942340628,214.47067356754977,10091.268800304548,0,0
2026-03-12T18:35:10.453,3247913,-0.6937199310302734,1.0103531005859374,9.296086495971679,-148.31672659596384,-24.752084639612555,-152.17721889996025,2144.0,9227.0,-3477.0,-36.08093935400984,-7.578207371119036,-55.604619826504575,4.287464309918589,4.874193770595305,-3.0406194244687654,0.44345895128938145,0.9945445314407529,-0.388948528462064,0.03661745525346396,0.14894153631556642,-0.04436357788436377,9.376528401874506,213.9355581343944,10090.777670724889,0,0
2026-03-12T18:35:10.464,3247923,-0.32620997619628905,0.9271545928955077,9.746794958496093,-147.25138846828673,-26.29191786844355,-154.64304138796342,2144.0,9227.0,-3477.0,-36.90864359590354,-7.694885499100763,-57.15105024038421,4.8392779092521625,4.662757666530826,-2.6788087552124793,0.4844739544261746,1.0255545264844703,-0.409500566773976,0.04142073260292798,0.15903788449883072,-0.048410124968551425,9.796225831954981,215.14810387442097,10090.777670724889,0,0
2026-03-12T18:35:10.474,3247933,-0.3022679595947265,1.0803834991455077,10.493187326049805,-146.2712773908238,-30.188564438968065,-156.67159807692636,2149.0,9238.0,-3467.0,-37.70760872747972,-7.852199469905446,-58.717766221153475,5.517882751028217,4.9244000128361165,-2.2787798401419908,0.5315579902074099,1.058676548713639,-0.425804039697765,0.04668957619249708,0.16945502533598114,-0.05261549720016354,10.552988898136665,216.4546734455207,10098.46196210096,0,0
2026-03-12T18:35:10.483,3247943,-0.20949264526367187,0.9564835632324218,10.127473022460936,-149.2095751995579,-31.77347928385062,-157.65787023077223,2149.0,9238.0,-3467.0,-38.530779943759974,-8.029688565467639,-60.294344923461196,5.519628373305158,4.566161545805201,-2.581116860221181,0.5779529598313546,1.0877730917091155,-0.44484098017547713,0.052416636685019814,0.18015242349681923,-0.057006843094916396,10.17469693877058,219.38335251959484,10098.46196210096,0,0
2026-03-12T18:35:10.503,3247953,-0.814627114868164,1.0414777221679687,9.03332286376953,-147.59280918359326,-28.03160094114257,-158.00524061231044,2142.0,9212.0,-3486.0,-39.30795605908512,-8.10856533396945,-61.8743973295843,4.956400693041484,4.576139506669445,-3.6550441504133246,0.618104212260343,1.1165314694741728,-0.4741705503544162,0.058539081128815625,0.1911264204533694,-0.0616868000498621,9.129579132859956,218.025374750239,10079.747219052668,0,0
2026-03-12T18:35:10.511,3247963,-0.37229835815429685,0.9690531219482421,9.775525378417969,-147.6253844489058,-27.229072865851165,-156.0848213633256,2142.0,9212.0,-3486.0,-40.087527767744184,-8.222587026489114,-63.435245543217555,5.690351785117448,4.3531905011765035,-3.075513731373942,0.6648826141598446,1.1426624238686487,-0.49735180235313325,0.06512271936314365,0.20235049164736382,-0.06659365775532003,9.830491668514641,216.5574935273364,10079.747219052668,0,0
2026-03-12T18:35:10.514,3247973,0.07841010437011718,0.7918821990966797,9.87608184814453,-149.33535369299332,-23.850747036583073,-153.51803565425953,2155.0,9227.0,-3474.0,-40.888404000946394,-8.34097951481657,-64.97042589976014,6.006490239063374,3.8313648531933366,-2.9209447635906853,0.7140733038022212,1.1632614313145733,-0.5186628312392044,0.0721911889487647,0.21376912285454905,-0.07170850578164435,9.908088525692703,215.49406782544384,10092.087494666304,0,0
2026-03-12T18:35:10.523,3247983,-0.33758243408203126,1.0127473022460938,9.94012674255371,-152.90852539755383,-22.58268727365643,-152.6765928019188,2155.0,9227.0,-3474.0,-41.693964536884216,-8.409277826065779,-66.49719182777933,6.229908913950914,4.149610940350452,-3.1798330700073096,0.7647268070476043,1.1866861776073065,-0.5422042445101883,0.0797586185622215,0.2254103486459915,-0.07705341767851949,9.99728656466538,217.25822629616823,10092.087494666304,0,0
2026-03-12T18:35:10.533,3247993,-0.8080430603027343,1.0438719238281249,8.914211331176757,-156.1958433657495,-21.416072291763918,-155.34246537776528,2150.0,9232.0,-3481.0,-42.50689865636322,-8.416918716398403,-68.05061648155699,5.680570387682866,4.076843041506335,-4.121912827267908,0.8092095232605665,1.2090427889020343,-0.5746720221911243,0.08776286308103233,0.23726327575847683,-0.08271733776253029,9.011424184752382,221.33023107290614,10098.00401069439,0,0
2026-03-12T18:35:10.544,3248003,-0.22505495605468748,0.9959878906249999,10.133458526611328,-152.50017589648954,-22.342786508422805,-157.79506814754407,2150.0,9232.0,-3481.0,-43.28722084176499,-8.491748695287999,-69.62856716303243,6.771611219778292,3.806287927443056,-3.219763252556847,0.8637717509264742,1.228399083153818,-0.5977666098959424,0.09630418000970678,0.249297719323425,-0.08860630885762823,10.184774092834274,220.57830194538465,10098.00401069439,0,0
2026-03-12T18:35:10.554,3248013,-0.5931634613037109,0.8846575134277344,8.67598826599121,-152.46016182477038,-24.39536358774898,-157.57146269574056,2155.0,9229.0,-3472.0,-44.05231346436427,-8.546301470143229,-71.20428178998984,5.854650310965368,3.494500047700183,-4.336844395369826,0.908483480225586,1.2443939223763576,-0.631518028041896,0.10528362579715067,0.26147991688864136,-0.09482656764890914,8.7411231657898,220.60825135132367,10093.22792767507,0,0
2026-03-12T18:35:10.565,3248023,-0.3800795135498047,1.014542953491211,9.821613760375977,-154.58334887878874,-25.963734500729064,-156.80574568008132,2155.0,9229.0,-3472.0,-44.82571129408003,-8.640783372854983,-72.77233924679065,6.91099830017629,3.5196134568559048,-3.6838827899564137,0.9629295612789386,1.2603962060907428,-0.6583315031023383,0.11479800848853011,0.2738097950705992,-0.1013084727972526,9.881186907406702,221.71641603203858,10093.22792767507,0,0
2026-03-12T18:35:10.574,3248033,0.07721300354003906,0.9451111053466796,10.676942303466797,-152.21668096848563,-25.56663574067074,-159.2212860256748,2146.0,9207.0,-3467.0,-45.576781320467774,-8.769193902767858,-74.3645521070474,7.721470493956029,3.1580488190033376,-3.075980280820323,1.0245421022252215,1.2725970438665646,-0.6787549363218834,0.12491838608127154,0.2862492297437556,-0.10798792613831096,10.718968877691742,221.75434325358233,10069.47138632411,0,0
2026-03-12T18:35:10.584,3248043,-0.3764882110595703,0.9906009368896483,9.947907897949218,-150.11934649100678,-26.401304881417083,-156.88358314362083,2146.0,9207.0,-3467.0,-46.28650467447606,-8.865357995785446,-75.9333879384836,7.317716660780692,3.195488216117794,-3.7797284750007796,1.0812534798005329,1.2849836471373264,-0.7058039377558128,0.1355951899583976,0.29879996714891377,-0.11493091955035321,10.004194377125723,218.7356983903402,10069.47138632411,0,0
2026-03-12T18:35:10.606,3248053,-0.16639701538085935,1.045667575073242,10.66856259765625,-148.34979877172623,-30.769200490903714,-153.61289649213117,2147.0,9224.0,-3463.0,-46.969484070594625,-9.022114659545283,-77.46951690340492,8.052077135947842,3.004645087047536,-3.397633051822673,1.1443476373926111,1.2953046465376847,-0.728683564249929,0.1468916276659914,0.31144126060067634,-0.12209553743765966,10.720976473456002,215.7575687274106,10083.856107660402,0,0
2026-03-12T18:35:10.609,3248063,-0.7056909393310546,0.9271545928955077,8.722675198364257,-144.56181486998813,-34.86766445163141,-153.64386477276068,2147.0,9224.0,-3463.0,-47.59786576630239,-9.161236469009943,-79.00595555113253,6.6459372004260615,2.843790577175934,-4.787979674276415,1.1926449042559186,1.3038864140248025,-0.7649149105778027,0.15865925863184202,0.32415564461618346,-0.12961494185689423,8.800152155340276,213.82307996361536,10083.856107660402,0,0
2026-03-12T18:35:10.614,3248073,-0.17357962036132812,0.7493851196289062,9.124302526855468,-144.27686968038907,-32.7982512955009,-155.9923555909398,2150.0,9220.0,-3481.0,-48.234596903394454,-9.330587696405921,-80.56587910704192,7.0312384414576075,2.248947058765633,-4.389221860195533,1.2440129293404374,1.306480246343272,-0.7966750222420617,0.17092828853732114,0.33688322663253656,-0.13744411038723553,9.156669948387737,215.00036143138226,10087.034301517964,0,0
2026-03-12T18:35:10.624,3248083,-0.23523031311035156,0.9594763153076171,10.128071572875976,-144.01472010595796,-30.894391191860826,-158.15296714366463,2150.0,9220.0,-3481.0,-48.848447025153696,-9.475070232932131,-82.14740877847856,8.01475525886438,2.3270781217402314,-3.9840932213189655,1.304298074700145,1.3098047621472642,-0.8239682151384226,0.18378729801503826,0.3496312929797552,-0.14553810874608114,10.176136884158975,216.11817144946005,10087.034301517964,0,0
2026-03-12T18:35:10.648,3248093,-0.833182177734375,1.1240776794433593,9.443928448486327,-148.49354249748134,-30.18283989651196,-158.70072977217146,2161.0,9211.0,-3478.0,-49.47656499793275,-9.555145312018858,-83.73441607620028,7.6764890378411454,2.551419489542831,-4.736413087277668,1.360347020602378,1.315289172687052,-0.8582623608210312,0.197193377452841,0.36242140052191907,-0.15396661162193717,9.54701669166061,219.42483363988126,10080.125296840313,0,0
2026-03-12T18:35:10.651,3248103,-0.5237316131591797,0.9373299499511718,9.205705383300781,-149.41405909768284,-27.448212704791004,-159.68467139039774,2161.0,9211.0,-3478.0,-50.1189372362305,-9.633591244999549,-85.33126279010425,7.5271948773934785,2.003087414457637,-4.784014045681433,1.414084684835668,1.3152902461291538,-0.8925109637586779,0.21112289007689647,0.3751987286802274,-0.16272882953826442,9.268111665373414,220.40226794158133,10080.125296840313,0,0
2026-03-12T18:35:10.656,3248113,-0.6494272003173828,1.016338604736328,9.303867651367186,-149.46093436986823,-25.172355688407727,-159.94989767916593,2148.0,9210.0,-3459.0,-50.745830771271116,-9.67749500287927,-86.93076176689591,7.7560798916801845,1.915558239912904,-4.888264648533291,1.4692708014961828,1.3144291411003586,-0.9272727060903506,0.22558978249376643,0.3879546770711398,-0.17182955504256878,9.381719092050572,220.35468717772585,10069.890019260389,0,0
2026-03-12T18:35:10.665,3248123,-0.3028665100097656,0.9415198028564452,9.80665,-153.50405962027878,-24.83856723333511,-161.79390586483265,2148.0,9210.0,-3459.0,-51.414397371450946,-9.750579612851356,-88.54870082554424,8.219559390958391,1.4183262316585479,-4.55538672306812,1.5281943994746803,1.3086832173656897,-0.9582341747212163,0.24063085476202473,0.4006404677355519,-0.18123048489299118,9.85639751047797,224.40525554698877,10069.890019260389,0,0
2026-03-12T18:35:10.674,3248133,-0.16639701538085935,1.0408791717529295,10.532093103027343,-158.34373485065646,-26.291481854668298,-163.25039339564606,2159.0,9212.0,-3459.0,-52.11820461540854,-9.849780678208237,-90.1812047595007,8.955425958277957,1.101382078877886,-4.272808118460484,1.5934824291715979,1.2999015825821516,-0.9859478220672337,0.256309113374687,0.41322584407781204,-0.19089887315054985,10.584710791880562,228.94250660024352,10074.07097453656,0,0
2026-03-12T18:35:10.684,3248143,-0.5440823272705078,1.0091559997558592,9.526528405761718,-157.19623606260393,-26.108163306294834,-163.23036192399437,2159.0,9212.0,-3459.0,-52.794111625940026,-9.910440419093552,-91.81350837874065,8.23764314311059,1.1289365217619007,-5.017505749398284,1.6507209776936633,1.291523083582774,-1.0205810363677983,0.272543506828472,0.42571493383872616,-0.2009035788307136,9.595267837662284,228.11497951102697,10074.07097453656,0,0
2026-03-12T18:35:10.711,3248153,-0.26216508178710934,0.8098387115478515,9.117119921875,-157.02053717759563,-21.21951024179125,-162.65193297007482,2152.0,9224.0,-3464.0,-53.47271161789591,-9.94618632024643,-93.44002770844139,7.859217835530804,0.6126366748703012,-5.147914521679911,1.7033734587082368,1.2781847085765048,-1.0559792788608284,0.2892876641741388,0.43805828414356673,-0.21125190824770257,9.1567704426113,227.07128398224177,10085.265291503243,0,0
2026-03-12T18:35:10.714,3248163,-0.4261678955078125,1.045667575073242,9.930549935913085,-156.858894203388,-20.161949422447954,-161.15977833246882,2152.0,9224.0,-3464.0,-54.12551630066418,-9.958931177461325,-95.05162549176607,8.738565060770627,0.5121639183268264,-4.983162612038108,1.7638977226762038,1.2640567525433763,-1.0892237414064914,0.30661971475949995,0.4502481528173315,-0.22192200151610572,9.994541599412376,225.79568429753812,10085.265291503243,0,0
2026-03-12T18:35:10.714,3248173,-0.13766659545898435,0.93852705078125,10.064625228881836,-153.91018266711694,-19.188993468652118,-159.7869960658713,2137.0,9238.0,-3461.0,-54.74973741063419,-9.986854697490918,-96.64949545242479,8.818858638251251,0.0,-4.864578317127124,1.8243050144228354,1.2450959012552256,-1.120801481709096,0.32453790213882455,0.4622364127180539,-0.23289688631686348,10.109226781232982,222.6846333062074,10093.856250214782,0,0
2026-03-12T18:35:10.761,3248183,-0.5165490081787109,1.0319009155273438,9.67197615661621,-153.5973680537476,-18.93387399115995,-159.24403638060159,2137.0,9238.0,-3461.0,-55.350077869715086,-9.97795265289968,-98.24193581623081,8.643461335963199,0.0,-5.316267417819091,1.8820785333657302,1.2264194627363971,-1.1563546935489777,0.3430153287850094,0.47402610673807244,-0.2442159728191009,9.74057314286326,222.05698858657408,10093.856250214782,0,0
2026-03-12T18:35:10.763,3248193,-0.14784195251464843,0.9175777862548827,9.903615167236328,-156.2695786094478,-17.739164071867155,-155.94451347015345,2139.0,9214.0,-3460.0,-55.97968123986343,-9.990240045195668,-99.80138095093234,8.76053299942094,-0.5240742688154741,-5.124363449148216,1.9401386054095404,1.2028610392475187,-1.189484353119853,0.3620542981242657,0.4855686624134171,-0.2558547055339491,9.947130220192415,221.48036125622036,10071.976816891509,0,0
2026-03-12T18:35:10.763,3248203,-0.4423287567138672,1.01514150390625,9.763554370117188,-156.48801232069198,-21.12003094611778,-155.78895239254118,2139.0,9214.0,-3460.0,-56.59235505257987,-10.009717712313911,-101.35927047485775,8.779512613458682,-0.5166502214705786,-5.4241402442803555,1.997514725570965,1.1797291189773207,-1.2250698692292166,0.3816474159345954,0.49686858764958713,-0.26783729882201507,9.826146800257133,221.82144034067466,10071.976816891509,0,0
2026-03-12T18:35:10.764,3248213,-0.42437224426269526,0.8182184173583984,8.815450512695312,-158.2089713350366,-20.950428470428356,-156.92583620113788,2152.0,9217.0,-3469.0,-57.2222861635253,-10.024769305917427,-102.92852883686913,7.908256076025187,-0.6571028646571235,-5.85830318351399,2.0454483270362487,1.1555607189757882,-1.2643981075483912,0.4016997973057529,0.5079157706445057,-0.2802007986176015,8.863506130306735,223.8184914867655,10080.583018853622,0,0
2026-03-12T18:35:10.766,3248223,-0.5901707092285156,0.9846154327392578,9.317035760498046,-157.8722536282337,-21.994394192794086,-156.29176930504684,2152.0,9217.0,-3469.0,-57.82850498445165,-10.036975998768222,-104.4914465299196,8.468585347364208,-0.8455528043062375,-5.845207453608959,2.0981821678022423,1.129898613068735,-1.3030074293532137,0.42225893736479153,0.5186955420184178,-0.29293764203822253,9.38748764999555,223.23646430202066,10080.583018853622,0,0
2026-03-12T18:35:10.774,3248233,0.018555062866210937,0.939724151611328,10.577582934570312,-158.36247333797502,-22.63484265737056,-155.70842776064308,2148.0,9239.0,-3474.0,-58.44479439998951,-10.110876255852654,-106.04853080752603,9.3596107130717,-1.846516446275329,-5.142236765456891,2.158901600808965,1.0947619468768919,-1.3341133500526658,0.4434041054195083,0.5291135183256995,-0.3059724967632105,10.619260167694955,223.24005809786058,10101.56923452985,0,0
2026-03-12T18:35:10.784,3248243,-0.5201403106689453,1.0187328063964842,9.636661682128906,-156.573475470937,-23.544055244780914,-155.1717535397916,2148.0,9239.0,-3474.0,-59.01985267918983,-10.14503510747809,-107.60024834292395,8.74753184050079,-1.4825342916375397,-5.875188487665628,2.2126812654257635,1.0637375549011088,-1.3719722564053825,0.4650653871556922,0.539211142980836,-0.31937252710793707,9.704308880565517,221.69314119979273,10101.56923452985,0,0
2026-03-12T18:35:10.794,3248253,-0.21308394775390624,0.7978677032470702,9.170390908813475,-154.92759743326206,-24.38053082519844,-154.67801325660827,2153.0,9233.0,-3464.0,-59.5860044623546,-10.213116579265058,-109.14702847549003,8.151285717484324,-1.865931206497765,-5.952702809692654,2.2597812107615973,1.0294020691935892,-1.4100267952347743,0.48717553606404485,0.548955658509099,-0.3331393222652245,9.207500587082468,220.2776850131961,10093.710616022237,0,0
2026-03-12T18:35:10.807,3248263,-0.2861070983886719,0.9666589202880859,10.013748443603514,-155.0933896386011,-25.630088359182565,-156.14377219607962,2153.0,9233.0,-3464.0,-60.13717640499134,-10.28794107091059,-110.70846619745083,8.934776182781032,-2.284786993266665,-5.776641614065669,2.3138920380005663,0.9914558862720088,-1.4457763132047994,0.5098041419876065,0.5583113471544473,-0.34724948831187524,10.064365088354691,221.5665555414708,10093.710616022237,0,0
2026-03-12T18:35:10.814,3248273,-0.7787140899658203,1.1641805572509765,9.728838446044922,-154.36591846751304,-25.49968129044796,-155.33227042039326,2137.0,9219.0,-3462.0,-60.653267109914374,-10.316633478125986,-112.26178890165477,8.92114172521597,-2.0977497086137564,-6.253526586486784,2.367056903423935,0.9559212133480831,-1.4856869053836224,0.532941236310824,0.5673026887286402,-0.36174425100834573,9.829140832902652,220.47037162436925,10076.813682905922,0,0
2026-03-12T18:35:10.827,3248283,-0.3806780639648437,0.9145850341796874,9.515754498291015,-155.056644990112,-25.779706787212124,-156.6656887867618,2137.0,9219.0,-3462.0,-61.188426210938864,-10.381608080212843,-113.82844578952239,8.457068588844015,-2.580147458070876,-6.152639159420365,2.4148531754726896,0.9161679426858637,-1.5240050975231587,0.5565326782974853,0.5758879037873433,-0.3766073176815937,9.56718167721692,221.92632669571847,10076.813682905922,0,0
2026-03-12T18:35:10.836,3248293,-0.3010708587646484,0.9906009368896483,10.045471615600585,-154.65211339090305,-27.557330244235153,-156.13243368382086,2161.0,9243.0,-3472.0,-61.70944574997805,-10.471697583403714,-115.3897701263606,8.845343254724762,-3.0880980872655814,-6.0374343299271445,2.4657570088996383,0.8720076573860097,-1.5606137492100935,0.5806090581380953,0.5840233723808422,-0.39182124171852095,10.09868475881889,221.48142015639888,10107.311907723042,0,0
2026-03-12T18:35:10.844,3248303,-0.46148236999511716,0.9840168823242187,9.542090716552734,-151.23994431963084,-28.392743824696343,-155.88183898911518,2161.0,9243.0,-3472.0,-62.18520130119079,-10.552976983668112,-116.94858851625176,8.435393901279287,-3.043607680261772,-6.369597125174093,2.511859283693745,0.8289480068746411,-1.5999450746549069,0.6,0.5917205395971391,-0.40741287177260493,9.60378833822556,219.04067290420812,10107.311907723042,0,0
2026-03-12T18:35:10.854,3248313,-0.4674678741455078,1.1444283935546875,10.267533819580077,-150.98074877406037,-30.201324318720633,-156.61129186998596,2152.0,9238.0,-3479.0,-62.64418385081652,-10.653303630787331,-118.51470143495162,9.021175821229539,-3.599487623113727,-6.255232121030037,2.5630399762774494,0.7810588336838512,-1.637559934927229,0.6,0.5989315968060437,-0.42336468265075533,10.341687159141536,219.62332123926734,10103.226662804314,0,0
2026-03-12T18:35:10.864,3248323,-0.39803602600097654,0.9846154327392578,9.661202249145507,-153.54228887213554,-31.46521837322298,-154.2423885203871,2152.0,9238.0,-3479.0,-63.12962505400604,-10.768230346102875,-120.05712532015549,8.366650867947731,-3.6368366302924984,-6.454143220631852,2.607005887682573,0.7335201103702124,-1.6765698466265442,0.6,0.6,-0.4396902507359038,9.719399627923382,219.89999739846058,10103.226662804314,0,0
2026-03-12T18:35:10.874,3248333,-0.059256491088867186,0.8505401397705078,9.829394915771484,-154.8589057623647,-31.588000903365142,-154.7029974387561,2151.0,9223.0,-3472.0,-63.63385839441127,-10.91268693769274,-121.60415529454305,8.210399755197434,-4.182651893995459,-6.2797968325430045,2.648773236956029,0.6813181875588039,-1.7132772977276947,0.6,0.6,-0.45636620068946754,9.866302968756397,221.16080102840044,10086.888221845229,0,0
2026-03-12T18:35:10.883,3248343,-0.4225765930175781,1.016338604736328,9.802460147094726,-156.07019330137553,-31.700960831095934,-155.12675764365562,2151.0,9223.0,-3472.0,-64.1278510722542,-11.024421547237676,-123.1554228709796,8.333833825746167,-4.1806551770875755,-6.586545013052525,2.691129901585288,0.6299189612511092,-1.7524556066403467,0.6,0.6,-0.47341686599911514,9.864063061022273,222.32221457105194,10086.888221845229,0,0
2026-03-12T18:35:10.893,3248353,-0.8936357696533203,1.0666168395996094,8.902838873291016,-153.9845778372655,-30.20488396460826,-153.59661703216318,2134.0,9235.0,-3458.0,-64.5802038478374,-11.07120054326452,-124.69138904130124,7.79947436487404,-3.66474665034834,-7.173281815424149,2.727587775555518,0.5843724223264115,-1.7968255984226695,0.6,0.6,-0.4908937368613585,9.010926499262048,219.58029508760873,10089.447209832657,0,0
2026-03-12T18:35:10.918,3248363,-0.20530279235839843,0.9882067352294921,10.108319409179687,-154.14581161028426,-28.0284932474396,-156.18888766959012,2134.0,9235.0,-3458.0,-65.04608316663784,-11.1638429802841,-126.25327791799714,8.231505005773734,-4.977749546459673,-6.541507145737056,2.7677542832290563,0.5265760029588875,-1.8343070598318394,0.6,0.6,-0.5087275706522173,10.158583713594227,221.227250360752,10089.447209832657,0,0
2026-03-12T18:35:10.920,3248373,-0.8942343200683593,1.0420762725830077,8.811260659790038,-154.4541466814615,-23.46621378764443,-154.3337766560229,2148.0,9222.0,-3475.0,-65.4905927130332,-11.141200480921729,-127.79661568455737,7.5350947796754735,-4.071788560298719,-7.323350385905849,2.800458652560424,0.4785702455955618,-1.8789274552355344,0.6,0.6,-0.5269893283593681,8.917616968217025,219.60341808254492,10086.367681182359,0,0
2026-03-12T18:35:10.923,3248383,-0.316034619140625,0.9463082061767577,9.624092123413085,-156.9778149469446,-23.188916684632876,-154.46707452354107,2148.0,9222.0,-3475.0,-65.97023022977979,-11.174416678002114,-129.34128642979277,7.667909836446795,-5.118987197857645,-6.8710657123654855,2.8339806846610185,0.4209696680127306,-1.9184235406738015,0.6,0.6,-0.54562739020234,9.675666710956648,221.44940134122112,10086.367681182359,0,0
2026-03-12T18:35:10.934,3248393,-0.5482721801757812,0.9115922821044922,9.016563452148437,-156.01958975118902,-23.253803349862245,-154.58970856165777,2149.0,9208.0,-3470.0,-66.43087324879812,-11.183918789388267,-130.88718351540936,7.227160088847733,-4.835465743099576,-7.195817286775531,2.8626585012662535,0.36702578542300884,-1.9605259878384336,0.6,0.6,-0.5646674174306436,9.079097937513733,220.86382625849276,10072.058627708637,0,0
2026-03-12T18:35:10.943,3248403,-0.364517202758789,0.9606734161376953,9.680954412841796,-156.1780225710939,-20.433499081873265,-152.78253187672516,2149.0,9208.0,-3470.0,-66.88775719890738,-11.185242804144796,-132.4150088341766,7.474783974735193,-5.5783314959386,-7.016225874609166,2.8933452458984013,0.3065738334066685,-2.0002279228857573,0.6,0.6,-0.5840850269628417,9.735329709213849,219.4347389672122,10072.058627708637,0,0
2026-03-12T18:35:10.954,3248413,-0.6811503723144531,1.188122573852539,10.071209283447265,-154.88378076540639,-22.878819155323402,-153.27992932658714,2140.0,9226.0,-3469.0,-67.30912292830368,-11.185180773791942,-133.94780812744247,7.8589370638222995,-5.895948943701705,-7.20285434915883,2.9273555972885745,0.24390012881010664,-2.0411726193816855,0.6,0.6,-0.6,10.16389971965468,219.1053688171333,10086.25981223962,0,0
2026-03-12T18:35:10.964,3248423,-0.4052186309814453,0.9187748870849609,9.39843861694336,-153.69307830417387,-25.12851362289753,-151.49753498046016,2140.0,9226.0,-3469.0,-67.72961199775736,-11.22806226917365,-135.4627834772471,7.00396083554649,-5.7985523730216855,-7.225890255285241,2.952434277559379,0.18312588600369142,-2.08173004910552,0.6,0.6,-0.6,9.451930906882714,217.26598357926355,10086.25981223962,0,0
2026-03-12T18:35:11.003,3248433,-0.5662286926269531,1.120486376953125,10.059238275146484,-154.43763203983997,-25.518232533065728,-149.85773218202334,2150.0,9227.0,-3487.0,-68.139539887533,-11.262966151124463,-136.9613607990673,7.448538712061789,-6.388836035874624,-7.263733467533724,2.9815158697097965,0.11744896276027102,-2.122051873024144,0.6,0.6,-0.6,10.137276721559079,216.70141272364526,10095.503850724836,0,0
2026-03-12T18:35:11.025,3248443,-0.40880993347167965,0.9935936889648437,9.787496386718749,-153.20262147665278,-28.03677393042047,-149.38911360746147,2150.0,9227.0,-3487.0,-68.53954336293589,-11.334490513632764,-138.45525193514192,6.972878868367748,-6.477491521411908,-7.282664386412665,3.005475988517572,0.05188393683295965,-2.1619553391349466,0.6,0.5999183205289613,-0.6,9.84629064676076,215.81059099165427,10095.503850724836,0,0
2026-03-12T18:35:11.025,3248453,-0.33698388366699217,0.7739256866455078,8.789712844848632,-155.90641175852053,-28.03383201598683,-148.39798451886458,2154.0,9230.0,-3467.0,-68.97165045071732,-11.407799866912004,-139.93923178033057,6.079969225654404,-5.9697030004021805,-7.489714242737265,3.020281545562504,-0.007695896773496225,-2.2032996943388845,0.6,0.5992415201996651,-0.6,8.83015124452566,217.05913197601038,10092.210114737009,0,0
2026-03-12T18:35:11.025,3248463,-0.4207809417724609,1.0330980163574217,9.919776028442381,-155.19389881783889,-28.271125454707885,-149.1661457573554,2154.0,9230.0,-3467.0,-69.37655082064336,-11.478915135050636,-141.43089323790412,6.730709779428863,-6.972682355064996,-7.413837594631245,3.0412748137064405,-0.076261379519284,-2.2432764992309187,0.6,0.5978804274980678,-0.6,9.982299563067654,217.1058308863722,10092.210114737009,0,0
2026-03-12T18:35:11.025,3248473,-0.5500678314208984,0.8756792572021483,8.711901290893554,-153.81838691241177,-28.249435418331252,-150.99285409676696,2149.0,9224.0,-3479.0,-69.76491632306242,-11.531066604679438,-142.9408217788718,5.888336118785924,-6.1760162122652,-7.769265799371774,3.0536558022708853,-0.13595121851730696,-2.2861546198662666,0.6,0.5959243943975818,-0.6,8.773061773573179,217.3866802315138,10089.787807481383,0,0
2026-03-12T18:35:11.025,3248483,-0.39983167724609375,0.9361328491210937,9.419387881469726,-155.2729159594188,-28.069480584864753,-146.2734257690256,2149.0,9224.0,-3479.0,-70.16274643145299,-11.59830425592466,-144.40355603656204,6.039412283692905,-6.964073347301174,-7.618440726667028,3.0673391762311972,-0.20250807271046392,-2.3269039417259427,0.6,0.5933054143568067,-0.6,9.474232324727515,215.15921838734096,10089.787807481383,0,0
2026-03-12T18:35:11.033,3248493,0.051475335693359374,0.8421604339599609,9.996989031982421,-156.3710826826653,-28.063922138075572,-147.61155170750357,2143.0,9222.0,-3470.0,-70.57833078191908,-11.705168978840886,-145.87967155363708,5.828809036778061,-7.777381264990712,-7.318880017860355,3.078742857599993,-0.27607765707996546,-2.3640913507759778,0.6,0.5899540931482211,-0.6,10.032530768070895,216.8609448993016,10083.58234954225,0,0
2026-03-12T18:35:11.043,3248503,0.13766659545898435,0.7894879974365234,10.001178884887695,-155.38139606805206,-28.458808367029526,-145.72262757090328,2143.0,9222.0,-3470.0,-70.98245947051043,-11.821703455949237,-147.33689782934613,5.561755401293016,-7.97152234328681,-7.319175203385523,3.087345005438729,-0.35045598730514105,-2.4007238562676854,0.6,0.5858630837418946,-0.6,10.033235892628314,214.9147882391911,10083.58234954225,0,0
2026-03-12T18:35:11.054,3248513,-0.3327940307617187,0.9612719665527343,9.740809454345703,-154.4708843826079,-28.822103697667167,-143.984817365231,2152.0,9220.0,-3472.0,-71.35472099097504,-11.899066227867378,-148.77674600299844,5.61066575715976,-7.751207765511608,-7.719217983437817,3.0962998880651713,-0.4215485439858533,-2.4407472955605325,0.6,0.581065950703734,-0.6,9.793781929697099,213.12811971957856,10084.35858148648,0,0
2026-03-12T18:35:11.066,3248523,-0.4417302062988281,0.8990227233886718,9.106346014404297,-157.55321363199926,-28.276335401853792,-144.70603197601253,2152.0,9220.0,-3472.0,-71.75172562246263,-11.957646497083413,-150.22380632275855,5.169048230403151,-7.33073523935768,-7.943811733110318,3.100770514813665,-0.4874330579337386,-2.482382631698261,0.6,0.5756154285042723,-0.6,9.161272027747184,215.7832290975628,10084.35858148648,0,0
2026-03-12T18:35:11.079,3248533,-0.4147954376220703,1.1665747589111328,10.559027871704101,-155.9889565414393,-29.77422856970549,-144.40954941793154,2151.0,9222.0,-3468.0,-72.11737283205137,-12.038017500773535,-151.66790181693787,5.68751152324252,-8.756901098570129,-7.807921068536418,3.110280945595399,-0.5663770378856482,-2.5220549147478706,0.6,0.5693817064672904,-0.6,10.631369691560195,214.64663336026987,10084.5976122005,0,0
2026-03-12T18:35:11.089,3248543,-0.5482721801757812,0.9427169036865234,9.093177905273437,-153.98984001812417,-28.19229028412905,-145.496785464497,2151.0,9222.0,-3468.0,-72.46362897233182,-12.083659575377732,-153.12286967158283,4.870167109397311,-7.5707385993068925,-8.121244604104577,3.1115978774390314,-0.6324531575205363,-2.5642183503770823,0.6,0.5624941177171928,-0.6,9.158340568083501,213.72175986729556,10084.5976122005,0,0
2026-03-12T18:35:11.100,3248553,0.11192892761230468,0.8032546569824218,10.065822329711914,-153.11065281667425,-28.656907061398726,-144.41704262733725,2166.0,9227.0,-3473.0,-72.8163762734027,-12.194201220381705,-154.5670400978562,4.553851924215086,-8.745709768935098,-7.626393457296112,3.1097793507309643,-0.709111601381739,-2.6008750506757927,0.6,0.554847598701672,-0.6,10.09844172643123,212.41556564785913,10094.097978521904,0,0
2026-03-12T18:35:11.119,3248563,-0.5530605834960938,1.1276689819335937,10.073004934692381,-155.8218005913403,-31.004354496486826,-142.62367921715028,2166.0,9227.0,-3473.0,-73.16316070547548,-12.269832930324807,-155.9932768900277,4.905904062832885,-8.726786364722578,-8.127886518463313,3.111455815488904,-0.7844337730535303,-2.6419216071225193,0.6,0.5464562577101656,-0.6,10.151006933116008,213.50226558682658,10094.097978521904,0,0
2026-03-12T18:35:11.123,3248573,-0.5877765075683593,0.9570821136474609,9.106944564819335,-155.67605654403306,-31.644006136767878,-143.05378487977828,2156.0,9230.0,-3473.0,-73.50913144338915,-12.342388885144333,-157.42381473882546,4.316036485649524,-7.956761406139138,-8.303418919253456,3.1072969376402177,-0.8510413663081978,-2.684081459370328,0.6,0.5374078982030365,-0.6,9.175942823590695,213.77736801147745,10094.699846949388,0,0
2026-03-12T18:35:11.123,3248583,-0.6111199737548828,0.9415198028564452,8.996811288452149,-155.1419720205104,-31.912485645826447,-142.809482089396,2156.0,9230.0,-3473.0,-73.84502870449661,-12.413617851747963,-158.85190955971942,4.089407364106323,-7.9645444283626965,-8.376503161195426,3.1009681461120615,-0.9167265084329475,-2.726328793617548,0.6,0.5277123924855882,-0.6,9.066561670308818,213.26506136062096,10094.699846949388,0,0
2026-03-12T18:35:11.134,3248593,-0.3190273712158203,1.140238540649414,10.775104571533202,-154.65061425886955,-33.35948679416033,-142.7447235222443,2148.0,9214.0,-3460.0,-74.17005209762789,-12.530707078892416,-160.27935679494186,4.272380945028261,-9.811295997523022,-8.077478860352139,3.0965365762289085,-0.999616876382055,-2.7649970284877536,0.6,0.5171985074980459,-0.6,10.839963142033412,213.0861890016746,10073.891998626947,0,0
2026-03-12T18:35:11.144,3248603,-0.412401235961914,0.9720458740234375,9.743802206420899,-153.15856511816,-34.6907278506275,-142.68514564046475,2148.0,9214.0,-3460.0,-74.48065814911762,-12.648275985027443,-161.7062082513465,3.7579515845529516,-8.919861597591643,-8.267007714776739,3.0871043506933216,-1.0724832599726017,-2.8049520990509884,0.6,0.5059672012234215,-0.6,9.800848401974275,212.17927197136999,10073.891998626947,0,0
2026-03-12T18:35:11.153,3248613,-0.03232172241210937,0.7852981445312499,9.661202249145507,-153.3058799087072,-36.315469622577304,-140.71033398922756,2157.0,9217.0,-3467.0,-74.80380625527133,-12.813393422720116,-163.11331159123878,3.174803970880624,-8.994866169095591,-8.083406222997343,3.072069604546096,-1.1449954428386042,-2.8424993688617475,0.6,0.49402272954824045,-0.6,9.693119558142163,211.23660724375227,10080.963594815727,0,0
2026-03-12T18:35:11.164,3248623,-0.3651157531738281,0.987009634399414,9.83897172241211,-152.0014095160106,-33.81023205277112,-143.69350727008936,2157.0,9217.0,-3467.0,-75.09303497401301,-12.922504036736159,-164.55024666393967,3.2834593528437144,-9.220234881976786,-8.350962710284321,3.058330635103415,-1.2186398247834964,-2.882118861025122,0.6,0.4813544949691051,-0.6,9.895092828571043,211.88530934893862,10080.963594815727,0,0
2026-03-12T18:35:11.174,3248633,-0.8571241943359375,1.0396820709228516,8.93815334777832,-152.72129675472976,-33.66541348854943,-145.1580266884822,2145.0,9233.0,-3455.0,-75.37142216821188,-12.978653323055383,-166.0018269308245,3.2386070635389617,-8.376340652504718,-8.77974809489532,3.0443559551527226,-1.2828671828389155,-2.925367596844464,0.6,0.4680572973175752,-0.6,9.039147413418771,213.37293000728877,10088.921597475124,0,0
2026-03-12T18:35:11.184,3248643,-0.2813186950683594,0.93852705078125,9.702502227783203,-153.70359301435138,-30.49218040946548,-146.26538455340363,2145.0,9233.0,-3455.0,-75.67195540198168,-13.05952525889174,-167.46448077635856,2.687345550050578,-9.270687081578012,-8.417024998977405,3.02516096949343,-1.3549404428498752,-2.9643947791317244,0.6,0.45405338499618736,-0.6,9.751847143663662,214.35514990361162,10088.921597475124,0,0
2026-03-12T18:35:11.194,3248653,-0.32022447204589843,0.9229647399902343,9.63366893005371,-153.24730557320328,-30.052805976708242,-149.68415378913136,2148.0,9232.0,-3476.0,-75.96427325681144,-13.131225310861636,-168.96132231424986,2.4597605457927414,-9.27044249800872,-8.476064179348146,3.004012196327087,-1.425930194812513,-3.003418089611328,0.6,0.43935428896501416,-0.6,9.683077231833098,216.31748359318703,10095.855783439065,0,0
2026-03-12T18:35:11.220,3248663,-0.30346506042480464,0.958877764892578,9.732429748535155,-152.427521127347,-30.44858149857158,-150.50942148600083,2148.0,9232.0,-3476.0,-76.2418175081122,-13.207515204155651,-170.46641652910986,2.2064954726444785,-9.446245430341003,-8.529328028045688,2.980685993787729,-1.497586759379184,-3.0423806993434077,0.6,0.4239540429498511,-0.6,9.784259114571531,216.36624336608892,10095.855783439065,0,0
2026-03-12T18:35:11.225,3248673,-0.2184709014892578,1.1336544860839843,10.869076986694335,-152.79331943715925,-27.692694978685857,-150.38866776712075,2146.0,9227.0,-3474.0,-76.51388737303604,-13.264996142629448,-171.97030320678107,2.049329374435937,-10.65192769202726,-8.462617957896413,2.9561615982191065,-1.5800444457549647,-3.0801017757385365,0.6,0.4077454448938092,-0.6,10.930221249878901,216.16992208116685,10090.169522857384,0,0
2026-03-12T18:35:11.225,3248683,-0.5380968231201172,1.0510545288085937,9.68514426574707,-153.12985388218652,-25.15727938039099,-150.27757434575108,2146.0,9227.0,-3474.0,-76.7816036181044,-13.266397871633453,-173.47307895023857,1.8910406054961393,-9.51559945932983,-8.770495754783074,2.9304459242099568,-1.650072433743039,-3.1202896322870717,0.6,0.3908534758358224,-0.6,9.756858268003814,216.02080966204525,10090.169522857384,0,0
2026-03-12T18:35:11.236,3248693,-0.7068880401611328,0.9403227020263671,8.74601866455078,-155.6794655716116,-23.064697029959714,-150.975368398091,2153.0,9229.0,-3458.0,-77.07127408912801,-13.22567219896853,-174.98283263421948,1.686491692920102,-8.620223485432465,-8.955631318154722,2.9031011785220704,-1.710230548568403,-3.1616982562865896,0.6,0.37337741917978823,-0.6,8.824779882010635,218.08630886116106,10087.993556698973,0,0
2026-03-12T18:35:11.244,3248703,-0.26874913635253905,0.9253589416503906,9.661202249145507,-158.50510832588267,-24.179521267562933,-154.33733892624372,2153.0,9229.0,-3458.0,-77.39441299903335,-13.241663134466966,-176.5262060234819,1.120238869335655,-9.579997130342077,-8.694865836439488,2.8705890137071957,-1.7789400620737466,-3.1999172109312197,0.6,0.3552324305404917,-0.6,9.709137148484245,222.55006807674212,10087.993556698973,0,0
2026-03-12T18:35:11.254,3248713,-0.776319888305664,1.2318167541503906,10.021529598999022,-156.46469965981206,-24.005159566157896,-154.5503518121442,2166.0,9230.0,-3478.0,-77.66956193116003,-13.21353962602803,-178.07170954160335,1.307610842415924,-10.015081297981556,-9.072210711825395,2.8404101452993844,-1.8509045119277587,-3.2412797282787316,0.6,0.33638666203579287,-0.6,10.126751729374925,221.23123913834917,10098.561283668085,0,0
2026-03-12T18:35:11.264,3248723,-0.43634325256347656,0.987009634399414,9.592967501831055,-155.0675236870271,-25.924746800865265,-154.66632366717266,2166.0,9230.0,-3478.0,-77.94381720009687,-13.23183496457366,-179.61837277827507,0.7262960698093872,-9.582910317969437,-8.895643523417068,2.804958009407516,-1.9175326108808413,-3.2802826210602083,0.6,0.3168941245910575,-0.6,9.653476521111019,220.54410233745608,10098.561283668085,0,0
2026-03-12T18:35:11.280,3248733,-0.8068459594726562,1.1192892761230469,9.246406811523437,-155.22212179206494,-26.65076705679604,-154.53301777379883,2147.0,9226.0,-3476.0,-78.20006567836606,-13.221601535008434,178.83629704398695,0.7786714055847038,-9.297628954812277,-9.217061608908748,2.7705535526114127,-1.9803512669225296,-3.3218664385920564,0.6,0.2967935213099103,-0.6,9.348788574470408,220.64592464086772,10090.156639022012,0,0
2026-03-12T18:35:11.286,3248743,-0.5111620544433594,1.01514150390625,9.513360296630859,-150.32435204869972,-24.67870569225236,-155.8503763518949,2147.0,9226.0,-3476.0,-78.41639742128352,-13.220488692067798,177.277793280468,0.25395575952996147,-9.54627114525093,-9.032029611732762,2.7314967135536117,-2.0446767686994134,-3.3610039336887434,0.6,0.27607040686929324,-0.6,9.58101367561743,217.93528659336812,10090.156639022012,0,0
2026-03-12T18:35:11.294,3248753,-0.8014590057373047,1.2108674896240235,9.798868844604492,-146.93840388480373,-24.30440923687217,-159.3023462437433,2155.0,9223.0,-3466.0,-78.58182795488908,-13.1919688841625,175.68476981803056,0.20869828461198364,-9.888382360236097,-9.256462238560319,2.6925799409537357,-2.1114071834172474,-3.4017650277332314,0.6,0.25470137870008563,-0.6,9.905875390346194,218.0798852790613,10085.678460073968,0,0
2026-03-12T18:35:11.304,3248763,-0.3890577697753906,0.977432827758789,9.641450085449218,-145.98333157401942,-25.640056497922398,-159.91815854424382,2155.0,9223.0,-3466.0,-78.754204869481,-13.212158757852686,174.08558823258812,-0.4077885191857007,-9.656329344921176,-8.998372363759572,2.6481745249254507,-2.1748509197134624,-3.4393725201002647,0.6,0.23271991663344807,-0.6,9.69867519979981,218.04211296639156,10085.678460073968,0,0
2026-03-12T18:35:11.326,3248773,-0.7805097412109374,1.1857283721923828,9.852139831542969,-145.10466504809784,-26.868851978088603,-160.4847058607043,2156.0,9231.0,-3473.0,-78.89923261823294,-13.211174667905464,172.48074117398107,-0.37552254401625285,-9.932369937228566,-9.27109725936981,2.6047530099930087,-2.2400619997994617,-3.4791022403035536,0.6,0.210108977338818,-0.6,9.95388399013283,218.01981524746296,10095.614196273547,0,0
2026-03-12T18:35:11.327,3248783,-0.4686649749755859,0.9343371978759765,9.362525592041015,-144.53629184425,-27.199343819841516,-160.60592939184795,2156.0,9231.0,-3473.0,-79.05394179062223,-13.238147291181651,170.87468188006258,-0.8409781165896666,-9.354623184521662,-9.07637662464414,2.557398080394705,-2.298604108170008,-3.516318016451745,0.6,0.18693581332086082,-0.6,9.420696275739207,217.77237777123023,10095.614196273547,0,0
2026-03-12T18:35:11.334,3248793,-0.785896694946289,1.014542953491211,9.02195040588379,-148.89338849671,-28.783396314254194,-158.23745504050012,2158.0,9216.0,-3477.0,-79.23849085750375,-13.248880427443721,169.29230732965758,-0.7754158239709616,-9.066513694988185,-9.317181038410018,2.5113992633226707,-2.3534302064430914,-3.5553474794333075,0.6,0.16323810974517347,-0.6,9.112766876521798,219.1730303187642,10083.707106020087,0,0
2026-03-12T18:35:11.356,3248803,-0.40402153015136716,0.9247603912353515,9.406219772338867,-147.3019174169732,-32.160724609113856,-155.97845863726013,2158.0,9216.0,-3477.0,-79.41661363024555,-13.330214795802366,167.73252274328496,-1.4320998837290757,-9.32468477985878,-9.103280066852804,2.459622090518099,-2.409976898428054,-3.591684575900308,0.6,0.13899920242013203,-0.6,9.460200081581904,216.9365037077797,10083.707106020087,0,0
2026-03-12T18:35:11.359,3248813,-0.28012159423828126,1.0815805999755859,10.575787283325194,-144.87776402361533,-34.22786664038475,-155.66018194627932,2155.0,9217.0,-3474.0,-79.56482075183398,-13.44476546017799,166.17592092382216,-2.0751356488646295,-10.402243401579305,-9.04329843154933,2.402287673019011,-2.4762893424571897,-3.6268857968125645,0.6,0.11412207268656457,-0.6,10.634639691308072,215.38617784524408,10082.945502183378,0,0
2026-03-12T18:35:11.364,3248823,-0.3854664672851562,0.9271545928955077,9.479841473388671,-143.3675429017261,-34.20963730915397,-157.28736739057697,2155.0,9217.0,-3474.0,-79.69972994279,-13.545297664075319,164.6030472499164,-1.982328780773793,-9.300322896696912,-9.135858661952554,2.3467274194331043,-2.5307531828527967,-3.6624707176806086,0.6,0.08872572631717858,-0.6,9.532869158711264,215.55479021158513,10082.945502183378,0,0
2026-03-12T18:35:11.373,3248833,-0.30047230834960936,0.8762778076171874,9.463082061767578,-141.978139469588,-32.91286632442165,-156.86437799933083,2150.0,9222.0,-3472.0,-79.82336146065447,-13.639146349170442,163.0344034699231,-2.301174636527187,-9.19784201686846,-9.090852516847262,2.288859937971815,-2.583390628976159,-3.6970785542063447,0.6,0.06282892820738957,-0.6,9.508315755797902,214.1202511255112,10085.760655498423,0,0
2026-03-12T18:35:11.384,3248843,-0.4381389038085937,1.0139444030761717,9.71686743774414,-143.41988831202096,-32.83983701846792,-151.99522775938436,2150.0,9222.0,-3472.0,-79.9493390611096,-13.719514158150227,161.51445119232926,-2.5291661694787155,-9.429309842334721,-9.233068149985181,2.229614752132872,-2.637518471488513,-3.7325680971706032,0.6,0.036417289749011934,-0.6,9.779445881758969,211.54259268634112,10085.760655498423,0,0
2026-03-12T18:35:11.395,3248853,-0.6254851837158203,1.0726023437499999,9.498396536254882,-144.74629724705926,-32.772650056990486,-151.59560953863362,2149.0,9215.0,-3484.0,-80.07920788860767,-13.780374212959835,159.99849509694292,-2.5628674447348496,-9.220704578882138,-9.392449815904236,2.170926286520241,-2.6887796345181743,-3.769095206399701,0.6,0.009519963910426362,-0.6,9.579208958092769,212.14798134764766,10083.287261602736,0,0
2026-03-12T18:35:11.407,3248863,-0.30885201416015623,1.0097545501708984,9.987412225341796,-148.0465934672945,-33.270838052431245,-151.22796077554293,2149.0,9215.0,-3484.0,-80.2496815862772,-13.874952164263915,158.4862154891875,-3.2381597910705247,-9.487648320527594,-9.20478017135564,2.1064665182803926,-2.7419012759575985,-3.8032258629915585,0.6,-0.017881149800300474,-0.6,10.043077057214505,214.2303401068827,10083.287261602736,0,0
